City_ID,City,Lat,Lng,Max Temp,Humidity,Cloudiness,Wind Speed,Country,Date
0,iqaluit,63.7506,-68.5145,40.73,60,75,19.57,CA,1686770831
1,mariehamn,60.0973,19.9348,66.06,52,0,5.75,AX,1686770831
2,gadzhiyevo,69.2551,33.3362,49.08,72,100,15.68,RU,1686770831
3,bage,-31.3314,-54.1069,56.98,67,75,11.5,BR,1686770831
4,waitangi,-43.9535,-176.5597,51.82,77,99,26.06,NZ,1686770831
5,nova russas,-4.7067,-40.5631,92.88,26,1,8.08,BR,1686770832
6,port-aux-francais,-49.35,70.2167,43.95,99,100,22.48,TF,1686770832
7,colonia,50.9333,6.95,74.86,36,0,3.44,DE,1686770821
8,meizhou,24.2977,116.1072,75.74,98,92,1.54,CN,1686770832
9,northam,51.0333,-4.2167,69.39,71,99,2.53,GB,1686770598
10,nova sintra,14.8667,-24.7167,69.75,79,39,14.9,CV,1686770832
11,ivdel',60.6911,60.4206,52.18,82,21,3.65,RU,1686770832
12,port alfred,-33.5906,26.891,54.18,82,100,1.99,ZA,1686770833
13,leticia,-4.2153,-69.9406,71.65,78,100,9.22,CO,1686770833
14,awjilah,29.1081,21.2869,90.05,25,0,6.73,LY,1686770833
15,amga,60.8953,131.9608,39.69,97,87,3.85,RU,1686770592
16,albany,42.6001,-73.9662,64.81,83,100,1.99,US,1686770610
17,nagqu,31.5,92.0,38.34,89,100,5.55,CN,1686770833
18,aripuana,-9.1667,-60.6333,78.93,50,94,4.65,BR,1686770834
19,adamstown,-25.066,-130.1015,69.33,67,2,14.14,PN,1686770834
20,yerofey pavlovich,53.9667,121.9667,45.52,65,99,3.18,RU,1686770834
21,aasiaat,68.7098,-52.8699,32.81,75,98,7.72,GL,1686770834
22,west island,-12.1568,96.8225,80.58,89,40,21.92,CC,1686770551
23,saipan,15.1355,145.701,83.1,100,20,13.8,MP,1686770616
24,edinburgh of the seven seas,-37.0676,-12.3116,58.32,76,58,27.94,SH,1686770721
25,bethel,41.3712,-73.414,68.47,86,100,4.61,US,1686770835
26,puerto natales,-51.7236,-72.4875,39.65,81,75,17.27,CL,1686770835
27,saint-philippe,-21.3585,55.7679,69.12,82,46,8.3,RE,1686770563
28,badger,64.8,-147.5333,56.37,62,75,9.22,US,1686770835
29,grytviken,-54.2811,-36.5092,26.76,85,57,5.37,GS,1686770835
30,tiksi,71.6872,128.8694,33.26,81,100,7.56,RU,1686770835
31,goba,7.0167,39.9833,50.45,88,100,5.08,ET,1686770835
32,hawaiian paradise park,19.5933,-154.9731,76.51,90,100,5.75,US,1686770836
33,st. john's,47.5649,-52.7093,55.27,82,75,6.91,CA,1686770828
34,bikenibeu village,1.3673,173.1241,84.16,84,20,8.05,KI,1686770836
35,port mathurin,-19.6833,63.4167,76.62,80,8,20.27,MU,1686770836
36,ta`u,-14.2336,-169.5144,80.94,81,100,19.04,AS,1686770836
37,crane,31.3974,-102.3501,96.49,8,95,15.3,US,1686770836
38,udachny,66.4167,112.4,46.45,93,100,12.44,RU,1686770836
39,ishim,56.1128,69.4902,59.99,61,58,9.55,RU,1686770836
40,papatowai,-46.5619,169.4708,44.13,71,100,3.85,NZ,1686770837
41,mount isa,-20.7333,139.5,53.37,40,3,10.36,AU,1686770837
42,narasannapeta,18.4167,84.05,87.55,59,95,5.17,IN,1686770837
43,khandyga,62.6667,135.6,47.48,96,100,2.33,RU,1686770837
44,bredasdorp,-34.5322,20.0403,53.73,74,87,11.88,ZA,1686770660
45,ebon,4.582,168.6964,83.35,80,46,15.37,MH,1686770837
46,yellowknife,62.456,-114.3525,61.32,55,100,6.91,CA,1686770837
47,vadso,70.0744,29.7487,56.28,58,0,19.57,NO,1686770838
48,atafu village,-8.5421,-172.5159,82.99,70,11,9.55,TK,1686770838
49,kailua-kona,19.6406,-155.9956,82.36,83,20,10.36,US,1686770838
50,akcakale,36.7111,38.9475,78.69,43,0,14.81,TR,1686770838
51,blackmans bay,-43.0167,147.3167,41.52,89,7,7.0,AU,1686770838
52,lata,40.1629,-8.3327,72.91,70,6,5.97,PT,1686770838
53,tekkalakote,15.5333,76.8833,84.16,56,15,18.77,IN,1686770839
54,flin flon,54.7682,-101.865,57.04,62,75,10.36,CA,1686770839
55,sherbrooke,45.4001,-71.8991,73.98,56,0,4.61,CA,1686770770
56,georgetown,5.4112,100.3354,84.13,85,20,3.44,MY,1686770600
57,campo gallo,-26.5833,-62.85,62.85,18,0,3.94,AR,1686770839
58,nephi,39.7102,-111.8363,74.28,47,95,5.95,US,1686770839
59,antonio enes,-16.2325,39.9086,73.45,66,2,7.54,MZ,1686770839
60,caleta de carquin,-11.0925,-77.6267,72.52,70,14,11.52,PE,1686770840
61,mamboma,8.0833,-11.6833,74.43,97,89,2.53,SL,1686770840
62,chonchi,-42.6128,-73.8092,51.12,97,100,2.77,CL,1686770840
63,margaret river,-33.95,115.0667,59.97,68,100,18.7,AU,1686770840
64,laguna,38.421,-121.4238,85.08,53,0,6.91,US,1686770840
65,new norfolk,-42.7826,147.0587,42.71,79,0,2.48,AU,1686770840
66,cabo san lucas,22.8909,-109.9124,93.61,45,0,6.91,MX,1686770689
67,oodweyne,9.4092,45.064,78.48,51,100,8.75,SO,1686770840
68,inirida,3.8653,-67.9239,84.51,76,56,2.35,CO,1686770841
69,anadyr,64.75,177.4833,37.9,64,0,11.18,RU,1686770841
70,tadine,-21.55,167.8833,69.04,68,0,3.04,NC,1686770841
71,tazovsky,67.4667,78.7,45.52,92,100,19.89,RU,1686770841
72,dudinka,69.4058,86.1778,40.62,77,10,11.7,RU,1686770841
73,hermanus,-34.4187,19.2345,52.81,75,96,18.54,ZA,1686770841
74,ushuaia,-54.8,-68.3,42.46,61,40,0.0,AR,1686770842
75,qaqortoq,60.7167,-46.0333,38.7,94,100,2.35,GL,1686770842
76,dryden,49.7833,-92.7503,55.69,62,75,8.05,CA,1686770842
77,olonkinbyen,70.9221,-8.7187,36.59,98,100,16.51,SJ,1686770842
78,puerto ayora,-0.7393,-90.3518,84.16,86,78,10.0,EC,1686770843
79,harar,9.3094,42.1258,62.42,88,100,4.09,ET,1686770687
80,pandan,14.0453,124.1694,80.74,85,100,5.55,PH,1686770843
81,san patricio,28.017,-97.5169,95.72,44,95,17.85,US,1686770844
82,zhigalovo,54.8097,105.1578,45.25,96,100,9.37,RU,1686770844
83,enewetak,11.3474,162.3373,81.66,82,100,21.32,MH,1686770606
84,victorica,-36.2151,-65.4359,61.63,21,27,16.31,AR,1686770844
85,usogorsk,63.4106,48.6872,49.89,61,35,5.06,RU,1686770844
86,belozersk,60.0326,37.7957,59.92,61,30,5.01,RU,1686770844
87,longyearbyen,78.2186,15.6401,37.24,75,75,16.11,SJ,1686770845
88,jamestown,42.097,-79.2353,64.02,77,75,17.27,US,1686770805
89,avarua,-21.2078,-159.775,75.25,83,75,8.05,CK,1686770845
90,al mutayrifi,25.4788,49.5576,97.14,16,6,10.65,SA,1686770845
91,ishigaki,24.3448,124.1572,77.13,100,75,1.14,JP,1686770845
92,filingue,14.3521,3.3168,94.96,37,43,4.25,NE,1686770845
93,dapa,9.7594,126.0531,80.76,78,100,2.86,PH,1686770596
94,lhokseumawe,5.1801,97.1507,80.1,85,100,2.84,ID,1686770846
95,kodiak,57.79,-152.4072,45.91,87,100,10.36,US,1686770846
96,cidreira,-30.1811,-50.2056,60.67,76,100,15.03,BR,1686770846
97,cosne-cours-sur-loire,47.3333,3.1667,66.92,67,0,5.82,FR,1686770846
98,eirunepe,-6.6603,-69.8736,75.83,60,78,5.64,BR,1686770846
99,prince rupert,54.3161,-130.3201,57.29,70,20,16.11,CA,1686770847
100,ust-nera,64.5667,143.2,54.73,73,11,2.06,RU,1686770847
101,urangan,-25.3,152.9,57.99,53,0,11.01,AU,1686770847
102,thompson,55.7435,-97.8558,55.56,44,75,10.36,CA,1686770791
103,mawlamyinegyunn,16.3833,95.2667,79.23,89,88,3.87,MM,1686770847
104,rock springs,41.5875,-109.2029,65.64,55,75,11.5,US,1686770844
105,arawa,-6.2132,155.5367,76.66,91,100,4.68,PG,1686770847
106,mitsamiouli,-11.3847,43.2844,77.16,65,5,6.15,KM,1686770848
107,saint-joseph,-21.3667,55.6167,71.47,81,19,8.95,RE,1686770848
108,santa rita,-7.1139,-34.9781,77.67,100,100,6.91,BR,1686770671
109,kenora,49.8167,-94.4337,54.57,66,100,6.91,CA,1686770848
110,pizarro,4.9533,-77.366,82.67,78,96,6.69,CO,1686770849
111,college,64.8569,-147.8028,56.46,65,75,9.22,US,1686770697
112,lospalos,-8.5186,127.0025,67.68,89,84,5.53,TL,1686770849
113,rawson,-43.3002,-65.1023,62.46,40,3,10.11,AR,1686770849
114,el obeid,13.1842,30.2167,80.53,61,100,13.71,SD,1686770849
115,murghob,38.1702,73.9667,50.27,46,83,2.06,TJ,1686770849
116,pisco,-13.7,-76.2167,71.65,68,20,11.5,PE,1686770578
117,tchintabaraden,15.8969,5.7985,91.72,36,20,19.53,NE,1686770850
118,klyuchi,52.2667,79.1667,55.94,49,0,1.36,RU,1686770850
119,haiku-pauwela,20.9219,-156.3051,80.62,57,20,6.91,US,1686770850
120,lemmon valley,39.636,-119.8432,77.47,48,0,6.91,US,1686770850
121,tangalle,6.024,80.7911,79.99,84,100,10.31,LK,1686770610
122,thunder bay,48.4001,-89.3168,58.98,67,100,8.05,CA,1686770776
123,wailua homesteads,22.0669,-159.378,81.03,83,75,11.5,US,1686770850
124,paoua,7.2427,16.4406,71.67,90,99,3.13,CF,1686770851
125,castillos,-34.1667,-53.8333,53.91,53,0,4.92,UY,1686770851
126,utrik,11.2278,169.8474,81.54,81,100,22.1,MH,1686770851
127,presidente epitacio,-21.7633,-52.1156,54.91,94,100,7.52,BR,1686770601
128,namibe,-15.1961,12.1522,64.31,86,16,8.05,AO,1686770851
129,petropavlovsk-kamchatsky,53.0452,158.6483,48.79,81,0,4.47,RU,1686770851
130,oranjemund,-28.55,16.4333,58.3,76,15,7.2,NA,1686770852
131,tommot,58.9564,126.2925,42.53,79,8,3.87,RU,1686770852
132,kez,57.8979,53.7152,53.67,79,49,4.07,RU,1686770852
133,enshi,30.3,109.4833,68.9,83,100,1.3,CN,1686770852
134,ilulissat,69.2167,-51.1,32.32,86,16,4.0,GL,1686770852
135,timbuktu,16.7735,-3.0074,102.18,24,97,0.98,ML,1686770852
136,afaahiti,-17.75,-149.2833,82.27,74,62,17.38,PF,1686770853
137,walvis bay,-22.9575,14.5053,56.35,82,0,2.3,NA,1686770853
138,kievka,50.2619,71.5514,53.47,41,0,10.36,KZ,1686770853
139,bilibino,68.0546,166.4372,34.75,64,91,2.33,RU,1686770853
140,merritt,50.1123,-120.7942,58.32,57,87,4.0,CA,1686770853
141,hadibu,12.65,54.0333,82.38,79,100,17.67,YE,1686770854
142,callao,-12.0667,-77.15,73.69,64,100,6.91,PE,1686770558
143,sao filipe,14.8961,-24.4956,76.53,74,70,11.88,CV,1686770854
144,taulaga,-11.0553,-171.0883,83.12,75,100,11.39,AS,1686770854
145,tocopilla,-22.092,-70.1979,68.13,59,3,11.21,CL,1686770854
146,tralee,52.2704,-9.7026,63.57,91,98,3.51,IE,1686770854
147,mersa matruh,31.3525,27.2453,71.8,83,40,11.5,EG,1686770854
148,la ronge,55.1001,-105.2842,64.62,55,40,18.41,CA,1686770855
149,kerikeri,-35.2268,173.9474,44.91,90,100,2.08,NZ,1686770855
150,cill airne,52.05,-9.5167,66.47,87,56,3.42,IE,1686770855
151,chaah,2.249,103.048,75.76,91,88,0.92,MY,1686770855
152,jeremoabo,-10.075,-38.4808,80.42,59,88,10.18,BR,1686770855
153,koubia,11.5833,-11.9,70.34,96,100,2.86,GN,1686770855
154,medina,24.4686,39.6142,102.63,8,0,12.66,SA,1686770855
155,rahimah,26.7079,50.0619,95.22,45,5,22.35,SA,1686770856
156,bodaybo,57.8506,114.1933,50.43,71,7,2.93,RU,1686770856
157,lebu,-37.6167,-73.65,55.98,67,99,8.59,CL,1686770856
158,bengkulu,-3.8004,102.2655,75.07,92,58,5.19,ID,1686770856
159,iskateley,67.6803,53.1512,39.79,74,52,13.94,RU,1686770563
160,arkhangel'sk,64.5401,40.5433,52.0,60,0,1.07,RU,1686770856
161,sao joao da barra,-21.6403,-41.0511,78.89,77,0,14.83,BR,1686770772
162,amungan,15.3652,119.9582,80.6,83,69,3.36,PH,1686770857
163,invercargill,-46.4,168.35,39.29,85,100,4.65,NZ,1686770857
164,puerto deseado,-47.7503,-65.8938,46.92,64,89,7.72,AR,1686770857
165,port elizabeth,-33.918,25.5701,59.29,66,0,32.01,ZA,1686770857
166,vangaindrano,-23.35,47.6,66.38,90,5,3.56,MG,1686770857
167,tamanrasset,22.785,5.5228,94.91,10,40,10.36,DZ,1686770832
168,hronov,50.4797,16.1823,58.71,87,10,3.71,CZ,1686770857
169,chillicothe,39.3331,-82.9824,73.26,55,40,10.36,US,1686770648
170,breves,-1.6822,-50.4803,86.32,61,27,4.52,BR,1686770858
171,vilyuchinsk,52.9306,158.4028,50.27,84,92,0.63,RU,1686770598
172,nongstoin,25.5167,91.2667,64.72,98,80,9.28,IN,1686770858
173,sitangkai,4.6628,119.3928,79.68,78,100,8.79,PH,1686770858
174,la mira,18.035,-102.3266,91.26,48,87,10.94,MX,1686770858
175,karratha,-20.7377,116.8463,68.13,39,19,8.5,AU,1686770859
176,papao,-17.75,-149.55,83.88,73,54,18.34,PF,1686770859
177,isafjordur,66.0755,-23.124,55.9,66,96,1.5,IS,1686770859
178,minas de marcona,-15.2119,-75.1103,64.4,59,0,14.79,PE,1686770859
179,constantia,44.1833,28.65,68.7,82,46,3.91,RO,1686770859
180,talnakh,69.4865,88.3972,40.21,86,8,7.76,RU,1686770859
181,vorgashor,67.5833,63.95,34.5,95,100,19.3,RU,1686770860
182,nizhniy odes,63.6445,54.856,45.48,61,49,5.39,RU,1686770860
183,bafia,4.75,11.2333,70.93,96,90,2.89,CM,1686770860
184,byron bay,-28.65,153.6167,45.72,67,0,7.76,AU,1686770860
185,touros,-5.1989,-35.4608,82.65,70,21,11.01,BR,1686770860
186,keflavik,64.0049,-22.5624,50.77,92,100,18.43,IS,1686770860
187,mata-utu,-13.2816,-176.1745,81.34,82,51,21.39,WF,1686770861
188,port-gentil,-0.7193,8.7815,77.11,85,4,15.73,GA,1686770861
189,fukuecho,32.6881,128.8419,71.51,75,95,8.75,JP,1686770861
190,ma'an,26.9775,110.7211,70.39,80,100,1.72,CN,1686770861
191,cholpon-ata,42.6494,77.0823,59.05,83,100,1.52,KG,1686770861
192,kirsanov,52.6549,42.7224,61.7,92,100,12.41,RU,1686770861
193,tsuruoka,38.7217,139.8217,66.07,99,100,2.24,JP,1686770862
194,sangre grande,10.5835,-61.1177,84.06,100,100,11.97,TT,1686770862
195,akureyri,65.6835,-18.0878,67.51,48,32,4.14,IS,1686770862
196,huntsville,34.7304,-86.5861,71.01,100,40,3.44,US,1686770253
197,amursk,50.2261,136.8994,55.06,98,100,1.16,RU,1686770862
198,maintirano,-18.0667,44.0167,73.58,66,0,9.8,MG,1686770862
199,maun,-19.9833,23.4167,51.76,40,0,1.14,BW,1686770862
200,kon tum,14.35,108.0,70.72,98,100,1.92,VN,1686770863
201,keyser,39.4409,-78.9739,74.95,46,31,12.77,US,1686770863
202,kapuskasing,49.4169,-82.4331,60.89,77,100,8.05,CA,1686770863
203,kastsyukovichy,53.3516,32.0506,62.26,82,100,6.35,BY,1686770863
204,sirte,31.2089,16.5887,92.91,27,31,16.37,LY,1686770863
205,cockburn town,21.4612,-71.1419,82.98,81,5,16.37,TC,1686770863
206,tura,25.5198,90.2201,74.5,96,92,10.6,IN,1686770863
207,whitehorse,60.7161,-135.0538,56.17,41,40,3.44,CA,1686770864
208,punta del este,-34.9667,-54.95,55.51,61,0,8.05,UY,1686770864
209,brak,27.5496,14.2714,99.82,12,97,17.11,LY,1686770864
210,port isabel,26.0734,-97.2086,95.04,64,0,24.16,US,1686770864
211,flying fish cove,-10.4217,105.6791,78.48,83,100,13.8,CX,1686770623
212,tual,-5.6667,132.75,80.31,78,100,18.48,ID,1686770864
213,ribeira grande,38.5167,-28.7,68.77,88,20,18.01,PT,1686770865
214,saynshand,44.8824,110.1163,71.73,31,15,10.2,MN,1686770865
215,sarmiento,-45.5882,-69.07,54.3,54,1,12.12,AR,1686770865
216,san antonio de pale,-1.4014,5.6325,76.98,88,97,11.83,GQ,1686770865
217,kulhudhuffushi,6.6221,73.07,83.75,79,29,13.98,MV,1686770865
218,boone,39.0334,-92.3335,88.79,34,0,6.26,US,1686770865
219,kuybyshev,55.4475,78.3218,51.39,64,21,9.01,RU,1686770865
220,broome,42.2506,-75.833,63.36,82,100,8.99,US,1686770609
221,pleiku,13.9833,108.0,68.86,96,100,3.15,VN,1686770866
222,port lincoln,-34.7333,135.8667,58.14,76,100,17.22,AU,1686770585
223,carnarvon,-24.8667,113.6333,61.09,71,98,17.02,AU,1686770866
224,lihue,21.9789,-159.3672,81.64,79,75,11.5,US,1686770866
225,taoudenni,22.6783,-3.9836,103.96,9,0,11.03,ML,1686770866
226,tateyama,34.9833,139.8667,70.21,93,100,9.19,JP,1686770867
227,ponta delgada,37.7333,-25.6667,68.72,94,40,9.22,PT,1686770867
228,zalingei,12.9096,23.4741,82.24,52,91,4.81,SD,1686770867
229,vila franca do campo,37.7167,-25.4333,68.41,81,44,9.44,PT,1686770867
230,ibarra,0.35,-78.1167,62.04,79,98,5.91,EC,1686770867
231,la rioja,42.25,-2.5,62.38,77,66,4.74,ES,1686770867
232,sinabang,2.4803,96.3801,80.38,77,100,5.97,ID,1686770867
233,puerto baquerizo moreno,-0.9,-89.6,81.59,74,75,14.97,EC,1686770868
234,srandakan,-7.9386,110.2506,75.11,90,100,6.53,ID,1686770868
235,alice town,25.7167,-79.3,83.66,74,5,9.48,BS,1686770868
236,al khawr,25.7667,51.3167,93.7,33,5,24.9,QA,1686770868
237,kish,26.5578,54.0194,88.07,74,16,9.22,IR,1686770868
238,marquette,46.5333,-87.6335,51.24,55,100,8.48,US,1686770800
239,stanley,54.868,-1.6985,63.77,66,1,7.0,GB,1686770868
240,itacare,-14.2775,-38.9967,75.61,88,7,6.96,BR,1686770869
241,kill devil hills,36.0307,-75.676,82.98,38,0,18.41,US,1686770869
242,talacogon,8.4167,125.8,72.27,98,97,1.07,PH,1686770869
243,mahibadhoo,3.7833,72.9667,83.73,79,100,13.76,MV,1686770869
244,severnoye,56.3491,78.3619,52.99,76,42,9.31,RU,1686770869
245,quellon,-43.1167,-73.6167,50.25,100,100,2.3,CL,1686770869
246,hamilton,39.1834,-84.5333,79.2,59,40,11.5,US,1686770869
247,forster,-32.1667,152.5167,48.7,69,0,8.7,AU,1686770870
248,paracuru,-3.41,-39.0306,82.11,68,2,11.72,BR,1686770823
249,taft,31.7471,54.2088,89.55,14,20,6.91,IR,1686770870
250,shalkar,47.8288,59.6258,72.73,19,7,13.71,KZ,1686770870
251,kyzyl-mazhalyk,51.1333,90.6,44.62,58,1,2.44,RU,1686770870
252,filadelfia,39.9523,-75.1638,74.41,72,75,14.97,US,1686770760
253,toliara,-23.35,43.6667,69.1,73,0,7.2,MG,1686770625
254,tago,9.0211,126.2317,76.96,84,65,3.56,PH,1686770871
255,arteche,12.2645,125.4048,78.37,87,100,3.69,PH,1686770871
256,kingston,17.997,-76.7936,92.25,73,20,25.32,JM,1686770771
257,lensk,60.7253,114.9278,51.46,95,100,2.51,RU,1686770871
258,cururupu,-1.8283,-44.8683,84.6,65,21,6.85,BR,1686770871
259,kormilovka,55.0026,74.1028,60.75,57,96,7.92,RU,1686770871
260,la sarre,48.8002,-79.1996,68.31,51,49,6.06,CA,1686770871
261,bac lieu,9.285,105.7244,81.25,81,100,7.61,VN,1686770872
262,the pas,53.8251,-101.2541,53.62,66,75,14.97,CA,1686770872
263,banjar,-8.19,114.9675,74.62,90,61,4.61,ID,1686770872
264,lompoc,34.6391,-120.4579,75.78,76,13,5.99,US,1686770872
265,nanping,26.645,118.1736,70.5,98,72,1.92,CN,1686770872
266,robore,-18.3333,-59.75,51.89,76,100,0.0,BO,1686770872
267,hasaki,35.7333,140.8333,70.29,94,100,13.76,JP,1686770872
268,coeur d'alene,47.6777,-116.7805,64.94,51,100,14.97,US,1686770765
269,syas'stroy,60.1367,32.5691,55.74,56,7,4.21,RU,1686770873
270,selfoss,63.9331,-20.9971,57.04,91,100,4.38,IS,1686770873
271,kargasok,59.0556,80.8572,59.49,72,100,15.61,RU,1686770873
272,ciudad satelite,19.5167,-99.25,83.88,15,6,7.27,MX,1686770873
273,antsiranana,-12.2787,49.2917,72.66,89,11,8.43,MG,1686770873
274,mount pearl,47.5166,-52.7813,54.45,80,75,6.91,CA,1686770873
275,mahendragarh,28.2833,76.15,97.0,32,4,9.17,IN,1686770873
276,palekh,56.8028,41.8572,56.53,66,0,3.89,RU,1686770874
277,san fernando de apure,7.8878,-67.4724,84.74,80,94,6.62,VE,1686770874
278,newman,37.3138,-121.0208,84.54,33,0,5.01,US,1686770874
279,san antonio oeste,-40.7319,-64.9477,65.84,19,82,8.72,AR,1686770874
280,alice springs,-23.7,133.8833,35.15,75,0,4.61,AU,1686770874
281,lazaro cardenas,17.9583,-102.2,89.56,53,85,11.34,MX,1686770875
282,shalqar,47.8333,59.6,72.77,19,7,13.65,KZ,1686770875
283,ushtobe,45.2514,77.9838,65.37,26,0,25.32,KZ,1686770875
284,mili,6.0815,171.735,83.25,79,46,18.32,MH,1686770875
285,hithadhoo,-0.6,73.0833,82.92,76,17,9.46,MV,1686770597
286,mogocha,53.7333,119.7667,45.14,65,100,2.01,RU,1686770875
287,punta arenas,-53.15,-70.9167,41.11,81,75,11.5,CL,1686770640
288,kutum,14.2,24.6667,82.71,45,42,5.19,SD,1686770719
289,turpan,42.9333,89.1667,94.08,14,100,5.5,CN,1686770876
290,guerrero negro,27.9769,-114.0611,68.79,62,9,21.34,MX,1686770876
291,port macquarie,-31.4333,152.9167,37.89,73,0,4.88,AU,1686770876
292,tuba city,36.135,-111.2399,78.15,19,0,7.52,US,1686770876
293,korenevo,55.6719,38.0078,68.72,48,0,4.47,RU,1686770876
294,fale old settlement,-9.3852,-171.2468,83.14,74,100,9.98,TK,1686770876
295,ancud,-41.8697,-73.8203,48.67,98,100,3.15,CL,1686770877
296,rikaze,29.25,88.8833,49.21,74,92,3.91,CN,1686770877
297,pacasmayo,-7.4006,-79.5714,75.16,68,32,15.19,PE,1686770877
298,magway,20.15,94.9167,79.43,78,97,12.46,MM,1686770877
299,sao tome,0.3365,6.7273,78.58,83,39,10.65,ST,1686770877
300,soio,-6.1349,12.3689,72.75,86,100,8.28,AO,1686770877
301,luau,-10.7073,22.2247,67.82,35,98,5.08,AO,1686770877
302,baijiantan,45.6333,85.1833,77.97,25,99,6.42,CN,1686770878
303,nemuro,43.3236,145.575,55.02,99,85,4.32,JP,1686770878
304,fort bragg,35.139,-79.006,87.21,53,75,18.41,US,1686770878
305,humaita,-7.5061,-63.0208,79.27,52,70,5.3,BR,1686770878
306,tolanaro,-25.0319,46.9987,73.47,73,0,11.5,MG,1686770878
307,puerto aysen,-45.4,-72.7,50.04,87,100,5.75,CL,1686770878
308,naze,28.3667,129.4833,70.72,90,100,3.76,JP,1686770878
309,sitka,57.0531,-135.33,51.69,66,75,5.75,US,1686770879
310,glendive,47.1053,-104.7125,84.76,36,0,13.8,US,1686770879
311,shunyi,40.125,116.6453,67.95,77,0,2.24,CN,1686770879
312,ratnagiri,16.9833,73.3,82.45,83,3,11.81,IN,1686770879
313,grande prairie,55.1667,-118.8027,57.38,72,100,10.36,CA,1686770800
314,calingasta,-31.3308,-69.4078,57.11,6,100,2.13,AR,1686770886
315,areia branca,-4.9561,-37.1369,91.6,73,82,14.81,BR,1686770821
316,lanxi,29.2195,119.477,70.84,81,100,1.07,CN,1686770887
317,north bend,43.4065,-124.2243,66.92,63,0,20.71,US,1686770887
318,kholmsk,47.0511,142.0569,56.19,96,100,7.02,RU,1686770887
319,weno,7.4515,151.8468,84.15,84,100,4.61,FM,1686770887
320,smithers,54.7804,-127.1743,61.12,39,20,5.75,CA,1686770887
321,pakur,24.6333,87.85,92.64,53,45,11.99,IN,1686770887
322,cachoeira,-12.6183,-38.9558,78.8,75,64,8.23,BR,1686770887
323,steamboat springs,40.485,-106.8317,68.34,45,100,8.05,US,1686770649
324,kristiansund,63.1115,7.732,64.45,63,0,11.5,NO,1686770607
325,jati,24.3539,68.2671,82.42,72,20,25.41,PK,1686770888
326,ambovombe,-25.1667,46.0833,67.69,73,0,1.83,MG,1686770888
327,berdychiv,49.8993,28.6024,58.42,90,8,5.26,UA,1686770889
328,libertad,8.9442,125.5019,74.21,89,90,3.83,PH,1686770889
329,quang ngai,15.1167,108.8,77.99,86,100,5.01,VN,1686770889
330,belyy yar,53.6039,91.3903,42.69,93,8,2.24,RU,1686770890
331,jaciara,-15.9653,-54.9683,60.76,64,80,7.43,BR,1686770890
332,tindouf,27.6711,-8.1474,88.61,24,0,17.34,DZ,1686770890
333,aguada de pasajeros,22.385,-80.8508,96.85,36,0,7.18,CU,1686770890
334,lamesa,32.7376,-101.951,89.53,28,7,5.32,US,1686770890
335,karacabey,40.2152,28.4038,68.38,91,0,3.38,TR,1686770658
336,kavieng,-2.5744,150.7967,80.1,84,99,13.87,PG,1686770596
337,la passe,45.5549,-0.8967,75.43,80,100,11.14,FR,1686770891
338,nar'yan-mar,67.6713,53.087,39.83,75,48,14.16,RU,1686770891
339,las tablas,7.7667,-80.2833,86.23,69,100,4.88,PA,1686770891
340,anna regina,7.2644,-58.5077,84.33,67,95,9.46,GY,1686770892
341,hirara,24.8,125.2833,78.66,100,100,8.05,JP,1686770892
342,nebbi,2.4783,31.0889,66.61,86,31,3.22,UG,1686770892
343,lae,-6.7221,146.9847,75.58,89,100,4.94,PG,1686770892
344,kodinsk,58.6881,99.1844,40.32,91,77,4.97,RU,1686770893
345,dharur,18.8167,76.1167,81.61,54,6,21.43,IN,1686770893
346,greenville,35.6127,-77.3663,86.04,50,0,13.8,US,1686770634
347,yamada,39.4667,141.95,64.58,99,100,4.74,JP,1686770893
348,qarauyl,48.9451,79.255,49.24,54,0,7.05,KZ,1686770893
349,angra do heroismo,38.65,-27.2167,68.05,83,14,17.13,PT,1686770893
350,vanimo,-2.6741,141.3028,75.74,95,100,3.31,PG,1686770893
351,salalah,17.0151,54.0924,82.49,94,75,5.75,OM,1686770894
352,guanica,17.9716,-66.908,92.7,73,6,16.73,PR,1686770894
353,kone,-21.0595,164.8658,64.94,85,18,3.09,NC,1686770894
354,bridlington,54.0831,-0.1919,62.89,87,1,5.99,GB,1686770894
355,piranshahr,36.701,45.1413,62.74,42,0,5.39,IR,1686770894
356,as sulayyil,20.4607,45.5779,96.1,13,50,7.7,SA,1686770894
357,okakarara,-20.5833,17.4333,55.83,20,0,3.8,NA,1686770894
358,archangelos,36.2149,28.1149,72.3,78,0,11.18,GR,1686770895
359,codrington,-38.2667,141.9667,53.15,91,100,15.97,AU,1686770895
360,pecos,31.4229,-103.4932,99.25,10,0,0.0,US,1686770666
361,beledweyne,4.7358,45.2036,81.9,56,100,20.42,SO,1686770895
362,peniche,39.3558,-9.3811,71.29,82,7,14.25,PT,1686770895
363,nuzvid,16.7833,80.85,87.66,50,100,5.64,IN,1686770895
364,sanctuary point,-35.1114,150.629,51.75,59,0,8.01,AU,1686770634
365,limon,10.0,-83.0333,87.06,79,0,4.61,CR,1686770896
366,hampton bays,40.869,-72.5176,71.92,87,75,12.66,US,1686770896
367,nuku'alofa,-21.1333,-175.2,59.34,94,20,2.3,TO,1686770896
368,livingston,55.9029,-3.5226,69.8,66,0,7.09,GB,1686770896
369,broadstairs,51.3591,1.4394,64.76,77,0,7.0,GB,1686770897
370,el calafate,-50.3408,-72.2768,38.43,86,95,4.74,AR,1686770897
371,prieska,-29.6641,22.7474,51.98,62,45,12.35,ZA,1686770897
372,santana,-0.0583,-51.1817,91.58,55,40,10.36,BR,1686770897
373,arar,30.9753,41.0381,89.64,21,0,8.63,SA,1686770898
374,primero de mayo,-32.2552,-58.4228,56.82,38,0,5.23,AR,1686770898
375,preobrazheniye,42.9019,133.9064,56.7,92,0,7.0,RU,1686770898
376,sabang,5.8933,95.3214,83.46,76,100,17.87,ID,1686770898
377,eyl,7.9803,49.8164,78.8,80,99,22.01,SO,1686770899
378,nouadhibou,20.931,-17.0347,69.58,82,9,23.17,MR,1686770899
379,el granada,37.5027,-122.4694,79.07,73,100,11.5,US,1686770657
380,pasaje,-3.3333,-79.8167,85.71,79,98,5.79,EC,1686770899
381,dzhetygara,52.1908,61.2006,61.54,36,91,7.18,KZ,1686770900
382,tambura,5.6,27.4667,69.67,95,100,3.47,SS,1686770900
383,shortandy,51.7006,70.9994,52.97,41,0,5.99,KZ,1686770900
384,hami,42.8,93.45,83.01,14,88,13.44,CN,1686770900
385,phai sali,15.5976,100.6585,81.52,73,100,8.93,TH,1686770900
386,tubmanburg,6.8708,-10.8172,75.06,92,58,3.83,LR,1686770900
387,jwaneng,-24.6004,24.7303,52.47,30,0,4.21,BW,1686770901
388,chui,-33.6971,-53.4616,54.61,57,0,6.04,UY,1686770901
389,manokwari,-0.8667,134.0833,77.27,84,100,8.1,ID,1686770901
390,akrehamn,59.2667,5.1833,63.0,72,0,6.91,NO,1686770901
391,kirakira,-10.4544,161.9205,78.49,86,17,5.55,SB,1686770719
392,tingambato,19.5,-101.8667,78.73,23,99,7.16,MX,1686770901
393,revelstoke,50.9832,-118.2023,57.22,77,100,8.05,CA,1686770902
394,zheleznodorozhnyy,55.7503,38.0042,68.52,67,38,5.68,RU,1686770902
395,shenjiamen,29.9576,122.298,70.79,92,100,7.65,CN,1686770902
396,arraial do cabo,-22.9661,-42.0278,75.06,83,40,8.05,BR,1686770902
397,illizi,26.4833,8.4667,96.37,14,8,1.5,DZ,1686770902
398,az zulfi,26.2995,44.8154,93.31,14,3,6.53,SA,1686770903
399,fort mcmurray,56.7268,-111.381,53.19,100,100,14.97,CA,1686770753
400,labytnangi,66.6572,66.4183,37.85,82,100,14.43,RU,1686770903
401,dinar,38.065,30.1656,64.36,80,75,3.42,TR,1686770903
402,sisimiut,66.9395,-53.6735,36.21,68,59,7.61,GL,1686770903
403,pangkalpinang,-2.1333,106.1333,77.5,92,100,5.06,ID,1686770903
404,nema,57.5067,50.5011,54.68,77,22,5.26,RU,1686770904
405,chibougamau,49.9168,-74.3659,69.42,49,100,8.05,CA,1686770904
406,corner brook,48.9667,-57.9484,78.96,41,100,7.45,CA,1686770904
407,es castell,39.8795,4.2854,72.28,78,20,9.22,ES,1686770642
408,vilhena,-12.7406,-60.1458,61.02,72,75,9.22,BR,1686770780
409,san luis de la loma,17.2706,-100.8939,91.92,53,11,11.1,MX,1686770904
410,saldanha,-33.0117,17.9442,57.25,88,100,10.65,ZA,1686770905
411,remire-montjoly,4.9167,-52.2667,80.64,94,75,10.36,GF,1686770619
412,cadale,2.7603,46.3222,79.21,84,100,15.55,SO,1686770905
413,dalhart,36.0595,-102.5133,78.48,33,0,6.91,US,1686770905
414,fortuna foothills,32.6578,-114.4119,96.22,18,0,6.91,US,1686770905
415,pop,40.8736,71.1089,77.49,38,99,4.52,UZ,1686770905
416,mogadishu,2.0371,45.3438,78.96,84,100,16.4,SO,1686770906
417,borujen,31.9652,51.2873,69.91,21,0,4.18,IR,1686770906
418,qulsary,46.9531,54.0198,89.94,17,100,21.85,KZ,1686770906
419,santarem,-2.4431,-54.7083,86.13,74,20,9.22,BR,1686770738
420,bamboo flat,11.7,92.7167,80.69,83,75,9.22,IN,1686770906
421,jawf al maqbabah,13.8378,45.8349,85.53,55,100,0.34,YE,1686770907
422,palamos,41.8484,3.1291,80.11,45,5,1.01,ES,1686770649
423,reynosa,26.0833,-98.2833,100.42,31,75,20.71,MX,1686770701
424,bafq,31.6128,55.4107,94.42,12,3,6.31,IR,1686770907
425,sur,22.5667,59.5289,89.26,58,100,11.27,OM,1686770907
426,uturoa,-16.7333,-151.4333,81.5,79,48,17.76,PF,1686770908
427,coracora,-15.0333,-73.7833,61.93,20,0,9.53,PE,1686770908
428,fulton,33.7668,-84.4499,73.81,90,75,9.22,US,1686770908
429,margate,51.3813,1.3862,64.87,78,0,7.0,GB,1686770908
430,shimoda,34.6667,138.95,68.11,91,100,1.45,JP,1686770908
431,chateaudun,48.0833,1.3333,77.14,65,15,7.16,FR,1686770909
432,usinsk,65.9939,57.5281,40.06,70,47,19.13,RU,1686770909
433,moroni,-11.7022,43.2551,74.82,72,5,6.98,KM,1686770897
434,beni mellal,32.3373,-6.3498,86.74,24,0,6.55,MA,1686770777
435,bathsheba,13.2167,-59.5167,88.41,70,40,16.11,BB,1686770909
436,kavaratti,10.5669,72.642,85.06,75,94,17.78,IN,1686770909
437,fethiye,36.6217,29.1164,73.27,71,0,2.33,TR,1686770910
438,nadym,65.5333,72.5167,39.27,89,18,13.24,RU,1686770910
439,turuntayevo,52.2,107.6167,53.69,88,100,13.71,RU,1686770910
440,krasnogvardeyskoye,45.8456,41.5186,69.21,86,25,6.55,RU,1686770910
441,clarinda,40.7419,-95.0383,86.32,26,0,3.44,US,1686770910
442,dakhla,23.6848,-15.958,71.47,81,0,19.15,EH,1686770911
443,kuressaare,58.2481,22.5039,63.95,47,0,7.72,EE,1686770911
444,mopti,14.6667,-4.0,88.79,52,32,20.67,ML,1686770912
445,lerwick,60.1545,-1.1494,58.42,75,35,6.64,GB,1686770912
446,iron mountain,45.8202,-88.066,75.02,50,0,0.0,US,1686770685
447,chernigovka,44.3389,132.5728,57.15,82,74,6.49,RU,1686770912
448,rondonopolis,-16.4708,-54.6356,59.76,64,100,9.4,BR,1686770773
449,bogande,12.9714,-0.1436,93.25,38,11,3.94,BF,1686770913
450,hagere hiywet,8.9833,37.85,60.53,90,100,3.67,ET,1686770913
451,mar del plata,-38.0023,-57.5575,53.94,55,0,20.71,AR,1686770636
452,yeppoon,-23.1333,150.7333,53.38,77,2,8.16,AU,1686770913
453,altamont,42.2068,-121.7372,67.77,29,0,14.97,US,1686770914
454,talodi,10.6325,30.3797,75.13,84,100,1.77,SD,1686770914
455,choyr,46.3611,108.3611,60.49,43,0,5.14,MN,1686770914
456,homer,59.6425,-151.5483,55.29,58,100,4.61,US,1686770914
457,zelenogradsk,54.9589,20.4767,60.85,74,40,6.71,RU,1686770914
458,howard springs,-12.497,131.047,71.51,65,100,5.68,AU,1686770914
459,dakoro,14.5106,6.765,96.62,26,72,4.09,NE,1686770915
460,brisas de zicatela,15.8369,-97.0419,93.72,59,20,11.5,MX,1686770915
461,paharpur,32.1038,70.9724,96.37,30,3,6.26,PK,1686770915
462,kayangel,8.0823,134.7173,83.23,74,96,9.17,PW,1686770915
463,kilindoni,-7.9139,39.6668,78.19,70,84,10.98,TZ,1686770915
464,tofol,5.3248,163.0078,82.72,79,89,16.44,FM,1686770915
465,harrismith,-28.2728,29.1295,48.85,40,0,16.73,ZA,1686770916
466,lupane,-18.9315,27.807,53.62,18,0,1.14,ZW,1686770916
467,adam,22.3756,57.5233,97.79,16,100,12.12,OM,1686770916
468,berezovyy,51.6667,135.7,51.12,98,96,2.46,RU,1686770916
469,mingguang,32.7802,117.9638,73.17,50,0,7.85,CN,1686770916
470,socorro,31.6546,-106.3033,93.06,9,40,8.05,US,1686770620
471,ilomantsi,62.6716,30.9328,58.69,51,21,3.06,FI,1686770908
472,shingu,33.7333,135.9833,70.43,92,100,2.46,JP,1686770917
473,east london,-33.0153,27.9116,57.81,73,100,10.67,ZA,1686770917
474,kruisfontein,-34.0033,24.7314,56.88,72,45,23.04,ZA,1686770917
475,sol'-iletsk,51.1631,54.9918,71.85,41,100,8.84,RU,1686770917
476,port saint john's,-31.6229,29.5448,63.37,70,100,6.96,ZA,1686770918
477,dingcheng,32.1272,115.0394,75.09,59,96,7.38,CN,1686770918
478,san luis,-33.295,-66.3356,61.54,14,17,4.07,AR,1686770917
479,pingyi,35.5006,117.6308,70.54,59,0,5.7,CN,1686770918
480,pingliang,35.5392,106.6861,61.43,49,100,3.62,CN,1686770918
481,macapa,0.0389,-51.0664,91.38,55,40,10.36,BR,1686770918
482,najran,17.4924,44.1277,87.42,17,100,6.29,SA,1686770892
483,kisanga,-7.4362,37.7034,72.3,74,48,2.42,TZ,1686770839
484,taishan,22.2514,112.7799,78.19,91,100,1.48,CN,1686770919
485,fortuna,40.5982,-124.1573,62.65,85,100,11.5,US,1686770919
486,lexington,37.9887,-84.4777,82.4,43,0,12.66,US,1686770890
487,ola,59.5833,151.2833,44.29,77,52,3.62,RU,1686770919
488,coremas,-7.0144,-37.9458,89.51,40,92,5.55,BR,1686770919
489,acajutla,13.5928,-89.8275,87.17,69,100,6.31,SV,1686770920
490,morehead city,34.7229,-76.726,84.99,78,0,24.16,US,1686770920
491,chegdomyn,51.1167,133.0167,42.73,88,0,3.15,RU,1686770920
492,howrah,22.5892,88.3103,89.6,84,40,14.97,IN,1686770920
493,burang,30.25,81.1667,42.39,82,97,5.23,CN,1686770920
494,axim,4.8699,-2.2405,78.1,73,61,7.27,GH,1686770920
495,inayauan,9.9005,122.434,79.14,84,100,6.85,PH,1686770920
496,sao raimundo das mangabeiras,-7.0219,-45.4811,94.82,29,5,6.71,BR,1686770921
497,sinop,41.7711,34.8709,57.6,94,98,2.64,TR,1686770921
498,safford,32.834,-109.7076,92.12,13,0,4.0,US,1686770806
499,fuman,37.2273,49.3142,76.5,71,20,3.91,IR,1686770921
500,puerto santa,-8.9906,-78.6456,74.43,69,97,11.23,PE,1686770921
501,adrar,20.5022,-10.0711,98.28,13,2,6.93,MR,1686770921
502,kukawa,12.9234,13.5606,89.96,45,84,9.4,NG,1686770921
503,praia da vitoria,38.7333,-27.0667,67.91,80,22,18.9,PT,1686770852
504,kiunga,-6.1219,141.2906,73.53,99,100,2.44,PG,1686770922
505,beitbridge,-22.2167,30.0,65.55,22,0,9.89,ZW,1686770922
506,biharamulo,-2.6319,31.3089,64.17,81,24,2.66,TZ,1686770922
507,bandarbeyla,9.4942,50.8122,78.03,83,100,27.4,SO,1686770922
508,topolobampo,25.6,-109.05,93.11,40,75,17.27,MX,1686770922
509,turkmenbasy,40.0222,52.9552,83.17,24,0,6.91,TM,1686770922
510,hammerfest,70.6634,23.6821,46.85,81,75,29.93,NO,1686770923
511,tumayr,25.7039,45.868,90.45,15,7,6.33,SA,1686770923
512,khatima,28.9167,79.9667,87.89,39,0,6.46,IN,1686770923
513,port hedland,-20.3167,118.5667,66.25,26,69,12.66,AU,1686770923
514,el-tor,28.2364,33.6254,84.34,54,0,12.66,EG,1686770923
515,urengoy,65.9667,78.3667,38.32,91,100,27.11,RU,1686770924
516,viedma,-40.8135,-62.9967,63.9,13,61,11.68,AR,1686770924
517,la'ie,21.6477,-157.9253,82.36,78,28,5.99,US,1686770924
518,nuuk,64.1835,-51.7216,41.88,56,1,5.01,GL,1686770674
519,kudahuvadhoo,2.6708,72.8944,83.55,77,99,13.47,MV,1686770924
520,aswan,24.0934,32.907,96.1,21,0,13.8,EG,1686770924
521,polyarnyy,69.1989,33.4478,49.33,72,100,14.32,RU,1686770925
522,berdigestyakh,62.0989,126.6992,45.64,79,70,6.42,RU,1686770925
523,talara,-4.5772,-81.2719,83.16,57,0,16.11,PE,1686770925
524,luderitz,-26.6481,15.1594,56.79,80,0,5.57,NA,1686770925
525,kuchera,26.9839,73.9719,93.0,38,34,24.4,IN,1686770925
526,galliano,29.4422,-90.2992,93.99,59,40,16.11,US,1686770925
527,oromocto,45.8351,-66.4792,68.14,86,100,8.05,CA,1686770730
528,nyala,12.05,24.8833,88.02,44,100,3.85,SD,1686770926
529,varzea da palma,-17.5981,-44.7308,86.7,31,67,4.07,BR,1686770926
530,tonj,7.2737,28.6822,78.4,66,100,3.33,SS,1686770926
531,pachino,36.7186,15.0907,71.46,82,98,8.79,IT,1686770926
532,nyagan,62.1406,65.3936,49.69,53,85,10.0,RU,1686770926
533,winnemucca,40.973,-117.7357,73.45,40,0,9.22,US,1686770926
534,manga,11.6636,-1.0731,89.73,47,74,1.83,BF,1686770926
535,calabozo,8.9242,-67.4293,86.92,63,100,4.5,VE,1686770927
536,cedeira,43.6797,-8.0209,67.05,77,22,10.27,ES,1686770927
537,piacabucu,-10.4056,-36.4344,79.23,75,90,10.42,BR,1686770822
538,darlowo,54.421,16.4107,57.34,80,67,11.79,PL,1686770927
539,ad darb,17.7229,42.2526,96.78,36,100,10.69,SA,1686770927
540,copiapo,-27.3667,-70.3333,58.69,15,72,4.9,CL,1686770927
541,tanumah,27.1,44.1333,94.41,13,7,8.01,SA,1686770928
542,porto novo,6.4965,2.6036,79.34,78,100,10.02,BJ,1686770923
543,mormugao,15.4,73.8,82.15,80,100,10.85,IN,1686770928
544,alaghsas,17.0187,8.0168,98.29,21,94,5.57,NE,1686770928
545,christchurch,-43.5333,172.6333,50.92,83,40,6.91,NZ,1686770928
546,vernon,50.2581,-119.2691,63.3,49,100,8.99,CA,1686770928
547,novodvinsk,64.4165,40.8122,52.09,61,1,1.36,RU,1686770928
548,mountain home,43.133,-115.6912,69.42,30,20,10.36,US,1686770796
549,culfa,38.9558,45.6308,78.67,55,68,4.45,AZ,1686770929
550,rongelap,11.1635,166.8941,81.81,79,77,21.43,MH,1686770929
551,presque isle,46.6811,-68.0159,67.01,84,100,8.05,US,1686770929
552,gbadolite,4.2833,21.0167,72.82,93,89,2.3,CD,1686770929
553,armidale,-30.5167,151.65,31.14,95,0,2.44,AU,1686770930
554,gizo,-8.103,156.8419,82.44,79,80,17.27,SB,1686770719
555,cam ranh,11.9214,109.1591,84.16,74,20,2.3,VN,1686770930
556,garachico,28.7781,-17.7646,69.91,68,20,9.22,ES,1686770930
557,kuqa,41.7278,82.9364,82.17,26,100,7.61,CN,1686770930
558,suva,-18.1416,178.4415,72.88,94,75,6.91,FJ,1686770930
559,south lake tahoe,38.9332,-119.9844,73.62,47,20,5.99,US,1686770810
560,todos santos,23.45,-110.2167,75.85,53,9,6.29,MX,1686770931
561,pasni,25.2631,63.471,84.79,82,100,7.25,PK,1686770931
562,nago,26.5881,127.9761,76.05,94,100,5.12,JP,1686770931
563,pacific grove,36.6177,-121.9166,67.39,84,75,8.05,US,1686770931
564,quibdo,5.6947,-76.6611,84.49,84,100,2.91,CO,1686770931
565,glace bay,46.1969,-59.957,56.57,90,100,16.11,CA,1686770931
566,majdal shams,33.2684,35.7694,59.36,86,0,6.73,IL,1686770932
567,bargaal,11.2864,51.0773,85.21,63,100,10.78,SO,1686770722
568,barclayville,4.6797,-8.2339,77.25,72,73,5.55,LR,1686770932
569,antalaha,-14.9003,50.2788,71.64,88,31,5.1,MG,1686770932
570,isangel,-19.55,169.2667,71.71,83,20,0.0,VU,1686770932
