City_ID,City,Lat,Lng,Max Temp,Humidity,Cloudiness,Wind Speed,Country,Date
0,adamstown,-25.066,-130.1015,69.85,66,4,14.45,PN,1686778217
1,palikir - national government center,6.9248,158.1611,81.34,83,100,9.22,FM,1686778218
2,tiksi,71.6872,128.8694,36.01,76,100,6.67,RU,1686778218
3,mazagao,-0.115,-51.2894,86.05,85,8,4.09,BR,1686778218
4,mawu,29.5923,107.3139,64.35,96,100,2.21,CN,1686778218
5,puerto natales,-51.7236,-72.4875,36.52,91,92,7.02,CL,1686777933
6,egilsstadir,65.2653,-14.3948,53.51,71,75,9.22,IS,1686778219
7,waitangi,-43.9535,-176.5597,52.83,94,82,5.99,NZ,1686778219
8,port mathurin,-19.6833,63.4167,76.21,78,24,20.83,MU,1686778219
9,puerto ayora,-0.7393,-90.3518,84.16,83,55,11.01,EC,1686778219
10,iqaluit,63.7506,-68.5145,40.73,56,75,12.66,CA,1686778169
11,longyearbyen,78.2186,15.6401,37.24,75,75,16.11,SJ,1686778219
12,ancud,-41.8697,-73.8203,49.41,93,100,6.76,CL,1686778220
13,grytviken,-54.2811,-36.5092,24.93,90,82,12.24,GS,1686778220
14,ciudad real,39.0,-4.0,76.14,50,1,5.01,ES,1686778220
15,wuwei,37.9281,102.6414,65.88,39,51,4.61,CN,1686778220
16,port lincoln,-34.7333,135.8667,57.31,81,33,16.04,AU,1686778220
17,port-aux-francais,-49.35,70.2167,43.9,99,100,21.99,TF,1686778221
18,albany,42.6001,-73.9662,65.8,87,100,1.99,US,1686778196
19,sinop,41.7711,34.8709,60.1,85,93,10.47,TR,1686778221
20,krasnopillya,50.7746,35.2597,60.42,98,99,7.83,UA,1686778221
21,atafu village,-8.5421,-172.5159,83.5,73,17,11.54,TK,1686778221
22,punta arenas,-53.15,-70.9167,35.71,93,40,11.5,CL,1686778221
23,thompson,55.7435,-97.8558,59.16,38,20,8.05,CA,1686778221
24,belmonte,-15.8631,-38.8828,70.32,97,23,1.79,BR,1686778222
25,colonia,50.9333,6.95,67.82,52,0,4.61,DE,1686778168
26,susuman,62.7833,148.1667,54.54,72,50,6.71,RU,1686778222
27,limulunga,-15.0969,23.1376,57.02,34,5,6.67,ZM,1686778222
28,hermanus,-34.4187,19.2345,51.8,79,99,10.6,ZA,1686778222
29,ilulissat,69.2167,-51.1,35.62,75,75,4.61,GL,1686778222
30,bredasdorp,-34.5322,20.0403,53.73,66,99,11.1,ZA,1686778223
31,mejit,10.2753,170.8646,81.93,80,52,22.21,MH,1686778223
32,lazaro cardenas,17.9583,-102.2,88.41,57,91,12.28,MX,1686778223
33,tazovsky,67.4667,78.7,43.2,95,100,12.95,RU,1686778223
34,stanley,54.868,-1.6985,56.77,83,2,2.77,GB,1686778223
35,constantia,44.1833,28.65,65.08,83,34,4.12,RO,1686778223
36,dwarka,22.2394,68.9678,84.72,74,100,42.03,IN,1686778224
37,ruy barbosa,-12.2839,-40.4939,74.43,74,98,6.53,BR,1686778224
38,alice springs,-23.7,133.8833,35.15,75,0,4.61,AU,1686778224
39,nurota,40.5614,65.6886,79.09,18,0,3.78,UZ,1686778224
40,lompoc,34.6391,-120.4579,78.01,77,100,11.99,US,1686778224
41,aasiaat,68.7098,-52.8699,32.79,72,58,6.04,GL,1686778224
42,carnarvon,-24.8667,113.6333,58.98,70,89,15.26,AU,1686778225
43,novodvinsk,64.4165,40.8122,47.7,68,2,2.73,RU,1686778225
44,prince rupert,54.3161,-130.3201,57.29,69,0,21.85,CA,1686778225
45,yaxley,52.5177,-0.2585,60.22,88,0,11.5,GB,1686778225
46,martapura,-3.4167,114.85,77.09,100,100,2.3,ID,1686778225
47,alamogordo,32.8995,-105.9603,92.21,7,0,16.11,US,1686778225
48,samana,19.2056,-69.3369,86.22,84,40,11.5,DO,1686778226
49,yellowknife,62.456,-114.3525,63.12,55,75,13.8,CA,1686778226
50,key west,24.5557,-81.7826,88.0,76,20,9.22,US,1686778035
51,pacific grove,36.6177,-121.9166,71.2,81,75,11.5,US,1686778226
52,kuala lipis,4.1842,102.0468,72.21,98,96,0.94,MY,1686778226
53,west island,-12.1568,96.8225,80.58,89,75,20.33,CC,1686778226
54,korla,41.7597,86.1469,82.96,26,98,14.63,CN,1686778196
55,taoudenni,22.6783,-3.9836,98.2,10,0,8.99,ML,1686778227
56,corinth,37.9407,22.9573,71.89,70,5,2.04,GR,1686778227
57,swakopmund,-22.6833,14.5333,54.99,84,0,1.01,NA,1686778227
58,callao,-12.0667,-77.15,73.69,64,100,9.22,PE,1686778227
59,georgetown,5.4112,100.3354,82.33,87,20,3.44,MY,1686778222
60,medina,24.4686,39.6142,99.03,8,0,8.05,SA,1686778066
61,alesund,62.4723,6.1549,61.9,88,0,12.66,NO,1686778227
62,whitehorse,60.7161,-135.0538,59.02,37,75,5.75,CA,1686778137
63,ushuaia,-54.8,-68.3,37.06,87,75,9.22,AR,1686778160
64,la ronge,55.1001,-105.2842,66.42,52,20,17.27,CA,1686778228
65,lata,40.1629,-8.3327,67.91,96,18,2.57,PT,1686778228
66,vyaz'ma,55.2104,34.2951,53.91,70,13,6.11,RU,1686778193
67,kingston,17.997,-76.7936,92.25,64,20,24.16,JM,1686778226
68,bethel,41.3712,-73.414,68.74,79,99,8.14,US,1686778228
69,fale old settlement,-9.3852,-171.2468,83.86,73,65,14.18,TK,1686778229
70,baruun-urt,46.6806,113.2792,58.06,74,45,11.95,MN,1686778229
71,tindouf,27.6711,-8.1474,84.65,34,0,16.11,DZ,1686778229
72,margaret river,-33.95,115.0667,59.31,73,99,19.26,AU,1686778112
73,saint-joseph,-21.3667,55.6167,75.58,80,19,8.9,RE,1686778229
74,coquimbo,-29.9533,-71.3436,55.13,76,0,6.91,CL,1686778230
75,codrington,-38.2667,141.9667,53.31,91,100,17.34,AU,1686778230
76,smithers,54.7804,-127.1743,64.72,34,20,8.05,CA,1686778230
77,amungan,15.3652,119.9582,80.74,83,92,5.46,PH,1686778230
78,blackmans bay,-43.0167,147.3167,42.75,91,21,5.79,AU,1686778230
79,molina,-35.1167,-71.2833,56.93,62,61,6.91,CL,1686778231
80,guaruja,-23.9931,-46.2564,68.9,26,100,9.95,BR,1686778231
81,fort st. john,56.2499,-120.8529,58.89,67,100,5.75,CA,1686778231
82,san francisco,37.7749,-122.4194,85.1,75,40,18.01,US,1686778133
83,oyama,36.3,139.8,74.59,82,100,2.1,JP,1686778231
84,hawaiian paradise park,19.5933,-154.9731,81.03,76,75,5.75,US,1686778211
85,crane,31.3974,-102.3501,97.11,9,91,15.26,US,1686778232
86,esmeraldas,-19.7625,-44.3139,73.71,50,71,6.67,BR,1686778232
87,dzuunharaa,48.8523,106.4579,51.78,67,63,5.21,MN,1686778232
88,newman,37.3138,-121.0208,91.74,10,0,3.67,US,1686778232
89,avarua,-21.2078,-159.775,77.05,83,20,5.75,CK,1686778232
90,krasnyy chikoy,50.3643,108.7512,46.4,92,27,5.97,RU,1686778233
91,mountain home,43.133,-115.6912,71.42,24,40,12.66,US,1686778233
92,al artawiyah,26.5053,45.3444,88.2,18,0,9.62,SA,1686778233
93,santa ana,33.7456,-117.8678,72.12,76,100,4.61,US,1686778009
94,saudarkrokur,65.7461,-19.6394,60.15,65,95,1.66,IS,1686778233
95,edinburgh of the seven seas,-37.0676,-12.3116,58.6,76,84,28.54,SH,1686778233
96,saipan,15.1355,145.701,83.64,100,40,14.97,MP,1686778234
97,harper,4.375,-7.7169,76.87,71,61,7.0,LR,1686778234
98,nanfeng,23.7434,111.7959,73.56,93,88,2.26,CN,1686778234
99,honcho,35.6931,139.9833,75.02,81,100,4.09,JP,1686778234
100,arraial do cabo,-22.9661,-42.0278,71.56,94,40,2.3,BR,1686778234
101,tabarka,36.9544,8.758,70.45,83,40,11.5,TN,1686778234
102,mammoth lakes,37.6485,-118.9721,70.52,47,75,13.8,US,1686778187
103,beau vallon,-20.4189,57.6953,75.43,88,40,11.5,MU,1686778235
104,fort mcmurray,56.7268,-111.381,53.19,100,100,12.66,CA,1686778235
105,olonkinbyen,70.9221,-8.7187,36.05,99,100,12.97,SJ,1686778235
106,grand-bassam,5.2118,-3.7388,82.36,75,100,7.74,CI,1686778235
107,great falls,47.5002,-111.3008,70.99,30,20,21.85,US,1686778236
108,ciudad bolivar,8.1222,-63.5497,88.41,53,100,10.04,VE,1686778134
109,jamestown,42.097,-79.2353,64.53,72,100,17.27,US,1686778185
110,bilibino,68.0546,166.4372,40.35,47,90,6.13,RU,1686778236
111,keflavik,64.0049,-22.5624,55.31,100,100,19.57,IS,1686778236
112,awjilah,29.1081,21.2869,86.02,30,0,10.22,LY,1686778236
113,prokuplje,43.2342,21.5881,61.88,98,100,2.77,RS,1686778236
114,san borja,-14.8167,-66.85,56.01,75,96,2.15,BO,1686778236
115,shenjiamen,29.9576,122.298,70.95,92,96,4.9,CN,1686778237
116,dunedin,-45.8742,170.5036,45.81,70,98,8.99,NZ,1686778147
117,revda,56.801,59.9303,49.05,81,79,4.32,RU,1686778237
118,papatowai,-46.5619,169.4708,44.91,71,100,2.64,NZ,1686778237
119,berezovyy,51.6667,135.7,51.26,97,99,1.34,RU,1686778237
120,college,64.8569,-147.8028,59.32,55,75,9.22,US,1686778023
121,kapit,2.0167,112.9333,73.58,100,100,1.14,MY,1686778237
122,lihue,21.9789,-159.3672,83.44,80,40,12.66,US,1686778141
123,luanda,-8.8368,13.2343,73.4,83,40,8.05,AO,1686778141
124,polovinnoye,54.7914,65.9864,52.25,53,65,8.05,RU,1686778238
125,tralee,52.2704,-9.7026,61.07,94,92,1.3,IE,1686778238
126,yatou,37.15,122.3833,66.13,72,0,1.32,CN,1686778238
127,kwang binh,17.4833,106.6,82.83,76,100,9.33,VN,1686778238
128,el calafate,-50.3408,-72.2768,36.99,84,35,12.73,AR,1686778238
129,suntar,62.1444,117.6319,53.73,69,100,3.22,RU,1686778238
130,pesqueira,-8.3578,-36.6964,68.43,98,59,10.4,BR,1686778239
131,minas de marcona,-15.2119,-75.1103,60.91,69,0,13.13,PE,1686778239
132,katoomba,-33.7198,150.3074,35.85,68,2,5.59,AU,1686778239
133,wanxian,30.8039,108.3897,72.01,90,100,4.0,CN,1686778239
134,rundu,-17.9333,19.7667,56.89,22,0,5.03,NA,1686778240
135,ulsteinvik,62.3432,5.8487,61.9,88,4,1.01,NO,1686778240
136,port elizabeth,-33.918,25.5701,58.1,66,0,24.16,ZA,1686778240
137,beni,0.5,29.4667,64.38,85,50,1.59,CD,1686778240
138,invercargill,-46.4,168.35,39.88,80,100,2.08,NZ,1686778240
139,heidesheim,49.5806,8.1961,68.74,53,77,6.71,DE,1686778240
140,shalqar,47.8333,59.6,68.36,21,24,13.29,KZ,1686778241
141,kayangel,8.0823,134.7173,83.77,71,81,9.31,PW,1686778241
142,fort bragg,35.139,-79.006,87.82,53,100,20.71,US,1686778241
143,polyarnyy,69.1989,33.4478,47.68,74,100,15.97,RU,1686778241
144,young,-32.6833,-57.6333,45.01,60,0,5.53,UY,1686778241
145,hammerfest,70.6634,23.6821,45.05,87,75,26.46,NO,1686778241
146,nouna,12.7333,-3.8667,88.2,49,83,2.77,BF,1686778242
147,cobh,51.8572,-8.2992,60.04,94,40,5.75,IE,1686778242
148,leh,34.1667,77.5833,50.09,62,74,5.53,IN,1686778242
149,santyoku,37.4406,129.1708,65.23,91,82,1.25,KR,1686778242
150,labrador city,52.9463,-66.9114,60.71,82,100,6.91,CA,1686778242
151,pedernales,18.0384,-71.744,88.25,61,48,11.99,DO,1686778242
152,macas,-2.3167,-78.1167,76.75,78,40,6.91,EC,1686778054
153,aykhal,66.0,111.5,44.69,89,100,25.46,RU,1686778243
154,port alfred,-33.5906,26.891,53.19,76,74,4.0,ZA,1686778243
155,fasa,28.9383,53.6482,74.44,22,0,4.61,IR,1686778243
156,flin flon,54.7682,-101.865,58.84,58,75,12.66,CA,1686778243
157,el matama,16.7095,33.3565,91.38,41,35,17.38,SD,1686778243
158,siwana,25.6333,72.4167,85.62,59,10,18.72,IN,1686778244
159,kone,-21.0595,164.8658,74.71,59,9,1.16,NC,1686778244
160,utrik,11.2278,169.8474,81.64,82,77,20.42,MH,1686778244
161,kiunga,-6.1219,141.2906,73.99,99,99,2.26,PG,1686778244
162,igarka,67.4667,86.5833,45.46,76,100,18.14,RU,1686778244
163,selfoss,63.9331,-20.9971,55.04,93,100,1.86,IS,1686778244
164,kaa-khem,51.6833,94.7333,39.9,73,4,4.21,RU,1686777950
165,lautoka,-17.6167,177.4667,76.86,83,75,5.75,FJ,1686778245
166,scarborough,54.2797,-0.4044,57.65,88,3,1.01,GB,1686777975
167,rasht,37.2808,49.5832,73.45,79,4,5.12,IR,1686778245
168,fisterra,42.9049,-9.2629,66.74,87,49,9.71,ES,1686778245
169,san patricio,28.017,-97.5169,93.29,51,56,18.52,US,1686778245
170,tsengel,49.4783,100.8894,54.07,65,98,6.22,MN,1686778245
171,kapuskasing,49.4169,-82.4331,66.29,59,100,9.22,CA,1686778246
172,sosnovo-ozerskoye,52.5249,111.5418,50.04,80,37,7.7,RU,1686778246
173,badger,64.8,-147.5333,59.38,54,75,9.22,US,1686778246
174,sitka,57.0531,-135.33,51.69,71,75,8.05,US,1686778246
175,bhagalpur,25.25,87.0,88.0,66,3,3.98,IN,1686778246
176,kavaratti,10.5669,72.642,84.6,73,90,19.95,IN,1686778246
177,aral,40.5156,81.2636,83.57,24,100,13.85,CN,1686778246
178,nola,40.922,14.5329,66.61,93,100,2.48,IT,1686778247
179,haiku-pauwela,20.9219,-156.3051,87.82,45,20,18.41,US,1686778247
180,pyay,18.8167,95.2167,76.28,90,94,6.91,MM,1686778247
181,nar'yan-mar,67.6713,53.087,36.84,87,53,11.9,RU,1686778247
182,tolanaro,-25.0319,46.9987,73.47,73,0,11.5,MG,1686778247
183,luderitz,-26.6481,15.1594,55.42,82,0,4.38,NA,1686778247
184,lensk,60.7253,114.9278,50.65,95,100,4.27,RU,1686778247
185,hadibu,12.65,54.0333,83.37,76,100,18.12,YE,1686778248
186,uturoa,-16.7333,-151.4333,81.25,81,71,16.15,PF,1686778248
187,revelstoke,50.9832,-118.2023,57.22,77,100,13.8,CA,1686778248
188,pul-e 'alam,33.9953,69.0227,70.68,39,49,3.36,AF,1686778248
189,klyuchi,52.2667,79.1667,52.92,55,0,3.44,RU,1686778248
190,flying fish cove,-10.4217,105.6791,78.48,88,86,21.16,CX,1686778249
191,anadyr,64.75,177.4833,41.5,52,40,20.13,RU,1686778249
192,isafjordur,66.0755,-23.124,50.65,70,100,4.05,IS,1686778249
193,bhimunipatnam,17.8833,83.4333,83.71,61,99,10.74,IN,1686778249
194,namibe,-15.1961,12.1522,64.8,86,15,13.4,AO,1686778249
195,kirovskoye,42.6198,71.5891,65.03,43,26,4.21,KG,1686778249
196,punakha,27.5837,89.8598,69.87,92,88,1.63,BT,1686778249
197,dudinka,69.4058,86.1778,42.62,74,26,12.08,RU,1686778250
198,guerrero,17.6667,-100.0,93.4,29,26,2.06,MX,1686778250
199,mao,39.8885,4.2658,66.76,94,0,3.44,ES,1686778250
200,kodiak,57.79,-152.4072,45.91,87,100,11.5,US,1686778250
201,zhezqazghan,47.7833,67.7667,61.74,37,1,17.07,KZ,1686778250
202,hosbach,50.0,9.2,68.86,63,68,8.79,DE,1686778250
203,merced,37.1666,-120.7516,91.74,39,0,7.38,US,1686777732
204,east ballina,-28.8667,153.5833,45.81,65,0,6.55,AU,1686778251
205,bam,29.106,58.357,90.12,12,0,7.25,IR,1686778251
206,kapshagay,43.8833,77.0833,65.97,47,52,5.57,KZ,1686778251
207,abepura,-2.6333,140.5833,74.21,88,20,2.3,ID,1686778251
208,weno,7.4515,151.8468,84.15,79,100,9.22,FM,1686777997
209,ivdel',60.6911,60.4206,48.7,85,26,4.12,RU,1686778251
210,mount gambier,-37.8333,140.7667,53.06,96,100,8.84,AU,1686778252
211,palmas,-10.2128,-48.3603,85.87,62,0,3.44,BR,1686778252
212,junin,-34.5838,-60.9433,43.9,69,8,7.94,AR,1686778252
213,enewetak,11.3474,162.3373,81.63,82,97,20.98,MH,1686778252
214,wailua homesteads,22.0669,-159.378,82.83,85,40,12.66,US,1686778252
215,kalmunai,7.4167,81.8167,82.36,78,100,4.74,LK,1686778252
216,bria,6.5423,21.9863,70.18,95,100,0.87,CF,1686778253
217,kyabe,9.4515,18.9449,77.88,78,99,1.32,TD,1686778254
218,sawang wirawong,15.2416,105.0922,78.62,85,100,6.22,TH,1686778254
219,matoury,4.8483,-52.3317,80.56,83,75,9.22,GF,1686778254
220,levuka,50.1834,-105.4011,87.53,27,75,24.16,CA,1686778254
221,yeed,4.55,43.0333,77.76,58,99,14.85,SO,1686778254
222,kirakira,-10.4544,161.9205,83.1,76,18,5.3,SB,1686778254
223,sur,22.5667,59.5289,88.23,71,100,8.81,OM,1686778255
224,man,7.4125,-7.5538,71.33,99,37,2.04,CI,1686778255
225,lop buri,14.7981,100.654,82.15,84,100,7.27,TH,1686778255
226,narasannapeta,18.4167,84.05,86.81,58,100,5.17,IN,1686778255
227,novokayakent,42.3937,47.9861,72.23,84,100,5.12,RU,1686778255
228,sabang,5.8933,95.3214,83.39,76,89,18.86,ID,1686778255
229,brezina,33.0989,1.2608,75.69,31,75,15.14,DZ,1686778256
230,beyneu,45.3167,55.2,83.17,24,98,17.94,KZ,1686778256
231,frolovo,49.7713,43.6622,68.4,68,100,6.8,RU,1686778256
232,mundemba,4.9479,8.8724,73.38,98,100,2.59,CM,1686778256
233,skovorodino,53.9833,123.9167,56.08,47,57,0.85,RU,1686778256
234,aitape,-3.1374,142.3475,78.26,86,93,8.03,PG,1686778256
235,katsuura,35.1333,140.3,70.7,94,100,5.86,JP,1686778257
236,novyy urgal,51.0736,132.5642,56.01,54,2,5.84,RU,1686778257
237,yauya,-8.9833,-77.3,55.54,63,100,5.14,PE,1686778257
238,shingu,33.7333,135.9833,70.72,94,100,2.62,JP,1686778257
239,sao felix do xingu,-6.6447,-51.995,79.39,68,52,2.3,BR,1686778257
240,vernon,50.2581,-119.2691,62.62,57,100,3.0,CA,1686778213
241,san julian,21.0167,-102.1667,93.96,4,3,8.39,MX,1686778257
242,bahia de kino,28.8333,-111.9333,101.91,34,6,11.12,MX,1686778258
243,itoman,26.1247,127.6694,77.02,96,75,18.41,JP,1686778258
244,happy valley-goose bay,53.3168,-60.3315,79.11,29,75,12.66,CA,1686778258
245,hamilton,39.1834,-84.5333,80.76,55,20,10.36,US,1686778214
246,vadso,70.0744,29.7487,50.88,62,20,28.77,NO,1686778258
247,maintirano,-18.0667,44.0167,69.3,66,0,8.25,MG,1686778258
248,laguna paiva,-31.3039,-60.6589,54.99,59,0,1.99,AR,1686778258
249,tamanrasset,22.785,5.5228,91.31,10,40,12.66,DZ,1686778259
250,barra do bugres,-15.0725,-57.1811,53.82,70,94,6.98,BR,1686778259
251,topolobampo,25.6,-109.05,93.11,43,75,20.71,MX,1686778259
252,beitbridge,-22.2167,30.0,62.28,25,0,10.07,ZW,1686778259
253,san sebastian de la gomera,28.0916,-17.1133,72.16,78,0,3.44,ES,1686778259
254,zhangzhou,24.5133,117.6556,75.13,97,100,1.52,CN,1686778259
255,chibougamau,49.9168,-74.3659,71.22,46,75,5.75,CA,1686778173
256,timbuktu,16.7735,-3.0074,94.89,32,67,16.91,ML,1686778260
257,fada,9.5667,8.3,69.55,95,79,2.44,NG,1686778260
258,gazli,40.1333,63.45,86.67,11,0,9.78,UZ,1686778260
259,udachny,66.4167,112.4,46.45,100,100,20.85,RU,1686778260
260,daru,-9.0763,143.2092,77.92,87,98,14.16,PG,1686778261
261,aabenraa,55.0443,9.4174,62.51,75,0,3.02,DK,1686778261
262,barakani,-12.1356,44.4317,77.11,61,33,3.33,KM,1686778261
263,kerikeri,-35.2268,173.9474,52.47,76,100,2.84,NZ,1686778261
264,road town,18.4167,-64.6167,86.09,70,40,9.22,VG,1686778262
265,barra de santo antonio,-9.4047,-35.5072,78.08,93,35,2.71,BR,1686778262
266,ulcinj,41.9294,19.2244,71.82,82,97,6.69,ME,1686778262
267,rongelap,11.1635,166.8941,81.88,82,53,20.31,MH,1686778262
268,ciudad melchor muzquiz,27.8833,-101.5167,99.79,36,100,11.65,MX,1686778262
269,lorengau,-2.0226,147.2712,79.81,83,100,4.74,PG,1686778263
270,qaqortoq,60.7167,-46.0333,37.92,94,97,1.63,GL,1686778263
271,nova sintra,14.8667,-24.7167,69.3,79,21,16.22,CV,1686778263
272,nyagan,62.1406,65.3936,47.03,59,82,9.46,RU,1686778263
273,tura,25.5198,90.2201,73.94,96,96,12.82,IN,1686778263
274,aleksandrovsk-sakhalinskiy,50.8975,142.1561,55.31,96,100,20.31,RU,1686778264
275,pahrump,36.2083,-115.9839,88.25,25,68,15.99,US,1686778238
276,amurzet,47.6967,131.0981,60.64,61,91,7.18,RU,1686778264
277,yeniseysk,58.4497,92.1703,44.91,68,83,7.58,RU,1686778264
278,lebu,-37.6167,-73.65,52.66,82,87,7.09,CL,1686778264
279,ternate,0.8,127.4,80.11,78,98,4.83,ID,1686778264
280,necochea,-38.5473,-58.7368,49.23,52,96,14.9,AR,1686778265
281,isangel,-19.55,169.2667,77.11,78,20,4.61,VU,1686778265
282,broome,42.2506,-75.833,61.63,84,100,9.22,US,1686778265
283,los palacios,22.5872,-83.2486,89.08,53,1,7.61,CU,1686778265
284,caucete,-31.6518,-68.2811,54.18,25,99,7.61,AR,1686778265
285,sheopur,25.6667,76.7,90.21,47,39,16.73,IN,1686778265
286,nemuro,43.3236,145.575,56.41,96,96,4.09,JP,1686778266
287,tyukhtet,56.5389,89.3011,43.74,77,74,7.76,RU,1686778266
288,conde,-7.2597,-34.9075,72.86,100,100,8.05,BR,1686778266
289,odda,60.0691,6.5457,64.47,79,75,2.62,NO,1686778266
290,gadzhiyevo,69.2551,33.3362,47.3,75,100,15.48,RU,1686778266
291,rexburg,43.826,-111.7897,71.58,43,20,25.32,US,1686778266
292,tangalle,6.024,80.7911,80.76,87,100,10.56,LK,1686778266
293,ribeira grande,38.5167,-28.7,67.77,92,3,13.0,PT,1686778267
294,la sarre,48.8002,-79.1996,64.76,72,80,9.84,CA,1686778267
295,dawson creek,55.7666,-120.2362,62.24,48,40,11.5,CA,1686778103
296,laguna,38.421,-121.4238,91.15,47,0,6.91,US,1686778267
297,bowen,-20.0167,148.2333,67.78,84,23,5.32,AU,1686778267
298,duong dong,10.2167,103.9667,80.6,89,40,1.14,VN,1686778268
299,horta,38.5333,-28.6333,67.01,92,2,13.0,PT,1686778268
300,baganga,7.5739,126.56,78.78,76,91,3.13,PH,1686778268
301,camabatela,-8.1881,15.375,62.29,78,11,0.87,AO,1686778268
302,isfahan,32.6572,51.6776,74.84,13,1,14.76,IR,1686778268
303,centenario do sul,-22.8211,-51.5953,53.04,98,100,6.82,BR,1686778269
304,iskateley,67.6803,53.1512,37.22,86,59,11.99,RU,1686778269
305,arfoud,31.4348,-4.2375,85.5,18,4,11.14,MA,1686778269
306,fortuna,40.5982,-124.1573,65.93,70,0,17.27,US,1686778269
307,alta,69.9689,23.2717,49.26,66,0,5.75,NO,1686778269
308,omdurman,15.6445,32.4777,88.0,49,100,18.61,SD,1686778269
309,malvan,16.0667,73.4667,82.72,80,58,13.13,IN,1686778270
310,touros,-5.1989,-35.4608,77.76,85,7,8.99,BR,1686778270
311,nagqu,31.5,92.0,38.44,88,100,4.36,CN,1686778270
312,vorgashor,67.5833,63.95,33.3,95,100,17.72,RU,1686778270
313,taltal,-25.4,-70.4833,62.38,66,54,6.55,CL,1686778270
314,ibshaway,29.358,30.6814,77.34,53,0,14.09,EG,1686778270
315,salinopolis,-0.6136,-47.3561,80.62,80,4,12.41,BR,1686778271
316,acarau,-2.8856,-40.12,78.96,77,1,13.58,BR,1686778271
317,potosi,-19.5836,-65.7531,39.88,10,0,16.71,BO,1686778271
318,broken hill,-31.95,141.4333,47.12,72,19,9.42,AU,1686778271
319,guerrero negro,27.9769,-114.0611,68.67,63,5,21.34,MX,1686778271
320,buala,-8.145,159.5921,83.07,77,79,6.35,SB,1686778272
321,akonolinga,3.7667,12.25,70.07,98,100,3.49,CM,1686778272
322,new norfolk,-42.7826,147.0587,43.92,79,46,2.77,AU,1686778272
323,turriff,57.5384,-2.4593,62.2,72,6,8.12,GB,1686778272
324,bela vista de goias,-16.9728,-48.9533,79.95,53,47,4.99,BR,1686778272
325,ust-tsilma,65.441,52.1498,38.79,76,48,6.26,RU,1686778273
326,turgen,43.4006,77.5933,60.93,63,91,3.96,KZ,1686778273
327,vila franca do campo,37.7167,-25.4333,68.41,93,23,7.99,PT,1686778273
328,bhamo,24.2667,97.2333,74.32,99,100,1.01,MM,1686778273
329,brigantine,39.4101,-74.3646,79.0,52,75,18.41,US,1686778273
330,tannum sands,-23.9504,151.3693,53.49,66,0,4.61,AU,1686778273
331,santana,-0.0583,-51.1817,86.18,70,20,9.22,BR,1686778120
332,zheleznogorsk-ilimskiy,56.5768,104.1217,43.7,95,100,10.87,RU,1686778274
333,kalispell,48.1958,-114.3129,57.67,57,100,11.5,US,1686778146
334,bagrationovsk,54.3871,20.6437,54.55,96,100,4.94,RU,1686778274
335,prado,-17.3411,-39.2208,72.9,86,0,4.68,BR,1686778274
336,bengkulu,-3.8004,102.2655,74.53,91,42,4.45,ID,1686778274
337,agua branca,-5.8922,-42.6361,82.65,37,21,3.67,BR,1686778274
338,berck-plage,50.407,1.5645,67.89,52,0,8.05,FR,1686778275
339,montmagny,48.9734,2.3469,74.84,49,0,6.91,FR,1686778275
340,karratha,-20.7377,116.8463,66.15,34,44,11.81,AU,1686778275
341,kamenka,51.3223,42.7678,65.37,73,100,16.67,RU,1686778275
342,constitucion,-35.3333,-72.4167,54.36,65,68,9.35,CL,1686778275
343,black point,-34.6187,137.8972,55.47,79,87,17.56,AU,1686778275
344,muynoq,43.7683,59.0214,75.18,48,0,20.27,UZ,1686778276
345,quepos,9.4236,-84.1652,82.58,81,93,3.24,CR,1686778276
346,cabedelo,-6.9811,-34.8339,74.07,88,3,11.39,BR,1686778276
347,forest,37.3638,-79.2897,75.92,61,100,0.0,US,1686778276
348,manaure,11.7751,-72.4445,91.42,56,98,19.95,CO,1686778276
349,ha'il,27.5219,41.6907,91.42,17,20,6.91,SA,1686778276
350,slave lake,55.2834,-114.769,53.58,94,100,20.71,CA,1686778007
351,reyes,-14.3167,-67.3833,55.06,76,96,2.91,BO,1686778277
352,sao joao da barra,-21.6403,-41.0511,73.49,87,0,13.69,BR,1686778277
353,antsiranana,-12.2787,49.2917,71.78,89,22,9.66,MG,1686778277
354,makar'yev,57.8797,43.8069,55.27,74,40,4.14,RU,1686778277
355,port saint john's,-31.6229,29.5448,66.51,51,100,9.57,ZA,1686778277
356,kokopo,-4.352,152.2633,75.85,93,100,4.99,PG,1686778277
357,homer,59.6425,-151.5483,55.78,51,0,6.91,US,1686778278
358,dhi as sufal,13.8345,44.1147,70.75,56,100,3.71,YE,1686778278
359,morehead city,34.7229,-76.726,86.0,79,0,19.57,US,1686778278
360,bikenibeu village,1.3673,173.1241,85.96,79,40,8.05,KI,1686778278
361,east london,-33.0153,27.9116,60.42,62,98,14.52,ZA,1686778278
362,sisimiut,66.9395,-53.6735,35.64,71,46,7.4,GL,1686778278
363,candido mendes,-1.4467,-45.7167,77.41,84,2,5.32,BR,1686778279
364,al muwayh,22.4333,41.7583,88.34,12,72,6.24,SA,1686778279
365,hithadhoo,-0.6,73.0833,82.92,77,57,11.65,MV,1686778279
366,sandnessjoen,66.0217,12.6316,50.52,87,20,8.05,NO,1686778176
367,bastrop,32.7562,-91.8724,78.48,100,40,3.44,US,1686778279
368,molteno,-31.3968,26.3625,44.67,86,100,20.58,ZA,1686778279
369,afaahiti,-17.75,-149.2833,82.27,73,55,15.7,PF,1686778280
370,berekum,7.4534,-2.584,71.92,89,88,5.01,GH,1686778280
371,ballina,-28.8667,153.5667,45.79,65,0,6.22,AU,1686778280
372,ponto novo,-10.8628,-40.1336,76.68,64,78,6.78,BR,1686778280
373,motueka,-41.1333,173.0167,46.09,76,5,3.02,NZ,1686778280
374,tupancireta,-29.0806,-53.8358,48.0,97,100,14.58,BR,1686778281
375,severo-yeniseyskiy,60.3725,93.0408,44.31,67,99,11.23,RU,1686778281
376,kenwood,39.2106,-84.3672,80.49,54,20,10.36,US,1686778281
377,nizhniy ingash,56.2,96.53,40.42,85,15,6.87,RU,1686778281
378,torghay,49.6339,63.4981,57.13,36,3,10.18,KZ,1686778281
379,mount isa,-20.7333,139.5,51.57,43,2,8.05,AU,1686778281
380,tumayr,25.7039,45.868,86.45,18,5,5.26,SA,1686778281
381,cubuk,40.2386,33.0322,62.35,88,40,6.91,TR,1686778282
382,kunduz,36.75,68.75,80.85,32,3,5.37,AF,1686778282
383,vargashi,55.3556,65.8467,51.89,59,83,8.05,RU,1686778282
384,lampazos de naranjo,27.0167,-100.5167,106.16,25,47,9.91,MX,1686778283
385,plastun,44.7561,136.2939,63.3,83,58,2.91,RU,1686778291
386,margherita,27.2833,95.6833,72.91,97,60,1.36,IN,1686778291
387,makubetsu,45.3714,141.8211,59.47,94,89,15.61,JP,1686778291
388,xianju,28.85,120.7333,71.47,86,98,3.09,CN,1686778292
389,kaitong,44.8135,123.15,70.18,57,95,5.95,CN,1686778292
390,malango,-2.9627,119.9001,65.61,98,100,1.59,ID,1686778292
391,howrah,22.5892,88.3103,89.6,84,40,13.8,IN,1686778292
392,yanykurgan,43.915,67.2481,81.66,21,0,9.69,KZ,1686778292
393,kidal,18.4411,1.4078,85.19,42,97,19.42,ML,1686778292
394,mili,6.0815,171.735,82.87,80,59,21.41,MH,1686778293
395,wongsorejo,-7.9908,114.4009,75.42,84,59,11.54,ID,1686778293
396,codo,-4.4553,-43.8856,80.42,58,4,1.72,BR,1686778293
397,kavieng,-2.5744,150.7967,79.93,84,100,9.8,PG,1686778293
398,xinyuan,37.3,99.0,41.27,73,67,3.42,CN,1686778293
399,nagaoka,37.45,138.85,66.13,98,100,1.95,JP,1686778294
400,pechora,65.1472,57.2244,37.8,81,25,7.67,RU,1686778294
401,carhuaz,-9.2819,-77.6447,64.29,59,80,2.82,PE,1686778294
402,rosso,16.4986,-15.8153,74.86,76,84,15.3,SN,1686778294
403,chonchi,-42.6128,-73.8092,50.13,95,100,3.53,CL,1686778294
404,piensk,51.249,15.0469,53.73,91,71,2.68,PL,1686778294
405,choyr,46.3611,108.3611,61.36,43,1,2.59,MN,1686778295
406,vilhena,-12.7406,-60.1458,57.42,77,75,9.22,BR,1686778295
407,rocha,-34.4833,-54.3333,41.65,80,0,5.03,UY,1686778295
408,ambon,-3.6954,128.1814,82.54,84,40,5.75,ID,1686778295
409,brisas de zicatela,15.8369,-97.0419,90.12,62,75,6.91,MX,1686778295
410,pinheiro,-2.5214,-45.0825,77.23,85,24,3.91,BR,1686778295
411,sorong,-0.8833,131.25,77.31,87,100,8.52,ID,1686778296
412,stavern,59.0,10.0333,68.72,57,4,5.21,NO,1686778296
413,antalaha,-14.9003,50.2788,70.45,88,12,4.83,MG,1686778296
414,lira,2.235,32.9097,63.41,91,60,2.51,UG,1686778296
415,biharamulo,-2.6319,31.3089,63.52,83,43,2.46,TZ,1686778296
416,kodinsk,58.6881,99.1844,41.0,85,70,3.96,RU,1686778297
417,mata-utu,-13.2816,-176.1745,81.45,81,50,19.64,WF,1686778297
418,goure,13.9835,10.2704,91.74,35,33,7.2,NE,1686778297
419,amahai,-3.3333,128.9167,81.0,91,100,1.9,ID,1686778297
420,andalgala,-27.5819,-66.3165,45.91,28,0,1.83,AR,1686778297
421,sakrand,26.1384,68.2736,82.35,83,20,9.22,PK,1686778297
422,ankazoabo,-22.2833,44.5167,61.25,38,0,2.91,MG,1686778297
423,veinticinco de mayo,-35.4323,-60.1727,45.99,62,26,1.99,AR,1686778242
424,la passe,45.5549,-0.8967,68.68,85,99,11.41,FR,1686778298
425,okhotsk,59.3833,143.3,45.66,96,100,8.61,RU,1686778298
426,ipatovo,45.7181,42.9036,67.64,89,66,7.92,RU,1686778298
427,darwin,-12.4611,130.8418,71.58,64,0,6.91,AU,1686778024
428,iola,37.9245,-95.4,81.39,50,0,3.44,US,1686778116
429,crozet,38.0696,-78.7006,78.51,52,62,1.99,US,1686778298
430,chiavari,44.3201,9.322,71.55,85,98,1.99,IT,1686778299
431,olyokminsk,60.3736,120.4264,60.89,50,90,4.36,RU,1686778299
432,coahuayana de hidalgo,18.7,-103.6583,91.13,49,100,7.58,MX,1686778299
433,talnakh,69.4865,88.3972,42.21,80,6,5.7,RU,1686778299
434,san luis de la loma,17.2706,-100.8939,90.16,56,24,8.99,MX,1686778299
435,queenstown,-31.8976,26.8753,50.23,77,100,19.15,ZA,1686778300
436,nova xavantina,-14.6667,-52.35,76.98,55,18,7.05,BR,1686778300
437,port moresby,-9.4431,147.1797,78.22,83,75,5.75,PG,1686778300
438,kirensk,57.7853,108.1119,45.93,98,100,5.06,RU,1686778300
439,yarmouth,41.7057,-70.2286,72.61,79,0,12.66,US,1686778300
440,praia da vitoria,38.7333,-27.0667,70.05,83,40,14.97,PT,1686778300
441,lodja,-3.4833,23.4333,70.56,94,94,0.18,CD,1686778301
442,sarangani,5.4033,125.4636,81.95,70,100,1.21,PH,1686778301
443,belaya kholunitsa,58.84,50.8528,52.27,88,54,3.04,RU,1686778301
444,kabalo,-6.05,26.9167,75.13,67,12,2.68,CD,1686778301
445,masjed soleyman,31.9364,49.3039,88.77,15,0,1.81,IR,1686778301
446,alacranes,22.7675,-81.5675,90.09,52,8,6.85,CU,1686778301
447,adrar,20.5022,-10.0711,92.03,16,2,10.6,MR,1686778302
448,puerto baquerizo moreno,-0.9,-89.6,81.59,69,75,16.11,EC,1686778302
449,coxim,-18.5067,-54.76,49.82,95,100,5.44,BR,1686778302
450,pedra azul,-16.0053,-41.2972,66.61,76,1,5.84,BR,1686778302
451,nizhniy kuranakh,58.8353,125.4869,55.63,62,80,3.94,RU,1686778302
452,ayr,55.4627,-4.6339,67.89,63,0,2.3,GB,1686778302
453,pisco,-13.7,-76.2167,69.85,73,0,12.66,PE,1686778302
454,minab,27.1467,57.0801,88.81,63,40,2.57,IR,1686778303
455,westport,41.1415,-73.3579,71.15,83,100,5.75,US,1686778303
456,santa lucia,27.9117,-15.5407,65.52,68,20,19.57,ES,1686778303
457,alofi,-19.0595,-169.9187,75.09,78,75,5.75,NU,1686778303
458,ust'-kulom,61.6864,53.6902,45.5,71,6,4.72,RU,1686778303
459,qamdo,31.1667,97.2333,35.47,96,100,3.36,CN,1686778303
460,valle de banderas,20.8,-105.2333,87.6,74,20,13.8,MX,1686778304
461,kununurra,-15.7667,128.7333,57.18,88,76,0.0,AU,1686778304
462,leshan,29.5623,103.7639,67.48,87,100,3.0,CN,1686778304
463,buka,40.8108,69.1986,75.72,30,0,1.95,UZ,1686778304
464,terra santa,-2.1042,-56.4869,81.07,71,41,3.4,BR,1686778304
465,boende,-0.2167,20.8667,72.54,90,50,1.9,CD,1686778304
466,vilyuchinsk,52.9306,158.4028,59.27,77,88,2.62,RU,1686778305
467,jayapura,-2.5333,140.7,74.59,93,100,2.68,ID,1686778305
468,dryden,49.7833,-92.7503,57.49,62,100,11.5,CA,1686778305
469,fukuecho,32.6881,128.8419,72.09,71,99,6.13,JP,1686778305
470,higashimurayama,35.7546,139.4685,71.38,88,100,3.44,JP,1686778305
471,humaita,-7.5061,-63.0208,71.1,75,73,3.38,BR,1686778306
472,bubaque,11.2833,-15.8333,82.22,79,71,11.45,GW,1686778306
473,geraldton,-28.7667,114.6,55.81,94,40,6.91,AU,1686778240
474,kayyerkan,69.3786,87.7439,42.3,75,5,9.33,RU,1686778306
475,eyl,7.9803,49.8164,77.59,86,98,21.94,SO,1686778306
476,santa luzia,-19.7697,-43.8514,73.74,55,0,9.22,BR,1686778306
477,luau,-10.7073,22.2247,64.67,39,68,6.4,AO,1686778306
478,hengchun,22.0042,120.7439,79.02,94,100,9.6,TW,1686778307
479,znamenskoye,57.1281,73.8282,57.34,78,63,8.79,RU,1686778307
480,hancheng,32.5186,112.3522,75.69,61,100,6.02,CN,1686778307
481,phan rang-thap cham,11.5667,108.9833,78.85,83,98,2.8,VN,1686778307
482,vilyuysk,63.7553,121.6247,52.84,80,100,6.55,RU,1686778307
483,kailua-kona,19.6406,-155.9956,82.36,82,40,11.5,US,1686778307
484,tazacorte,28.629,-17.9293,70.77,91,0,8.05,ES,1686778307
485,santo antonio do ica,-3.1022,-67.9397,74.59,85,91,3.38,BR,1686778308
486,whitecourt,54.1502,-115.6855,51.04,93,100,16.11,CA,1686778308
487,axim,4.8699,-2.2405,78.01,74,68,8.63,GH,1686778308
488,yuzhno-kurilsk,44.0306,145.8556,52.5,98,100,8.28,RU,1686778308
489,cabo san lucas,22.8909,-109.9124,93.61,40,0,5.75,MX,1686778228
490,mossel bay,-34.1831,22.146,53.53,69,96,10.38,ZA,1686778308
491,andovoranto,-18.95,49.1,69.67,90,42,3.2,MG,1686778308
492,sao goncalo do sapucai,-21.8922,-45.5953,62.51,91,71,3.67,BR,1686778309
493,melilla,35.2937,-2.9383,71.98,73,0,4.61,ES,1686778066
494,masterton,-40.9597,175.6575,46.89,79,0,2.37,NZ,1686778309
495,itanhandu,-22.2958,-44.9347,61.03,97,87,3.31,BR,1686778309
496,castillos,-34.1667,-53.8333,45.0,80,0,4.88,UY,1686778310
497,ratnagiri,16.9833,73.3,82.35,83,10,12.66,IN,1686778310
498,hobyo,5.3505,48.5268,78.08,87,6,21.63,SO,1686778310
499,sungai penuh,-2.0833,101.3833,63.19,97,90,2.51,ID,1686778310
500,tongliao,43.6125,122.2653,70.05,48,30,9.73,CN,1686778310
501,mount pearl,47.5166,-52.7813,53.33,82,75,9.22,CA,1686778310
502,namtsy,62.7161,129.6658,52.72,70,24,11.52,RU,1686778311
503,uray,60.1247,64.7758,51.58,77,70,5.23,RU,1686778311
504,thinadhoo,0.5333,72.9333,83.26,77,97,12.5,MV,1686778311
505,sao gabriel da cachoeira,-0.1303,-67.0892,74.62,98,100,3.13,BR,1686778311
506,gorontalo,0.5412,123.0595,75.83,94,100,2.17,ID,1686778311
507,tabou,4.423,-7.3528,76.98,71,57,6.82,CI,1686778311
508,tefe,-3.3542,-64.7114,71.71,88,75,11.5,BR,1686778312
509,ust-nera,64.5667,143.2,61.52,58,35,6.35,RU,1686778312
510,sangkhla buri,15.1555,98.4536,73.67,99,100,1.28,TH,1686778312
511,kogalym,62.2654,74.4791,46.99,69,100,11.05,RU,1686778312
512,terrace,54.5163,-128.6035,68.22,34,40,8.05,CA,1686778068
513,saint-pierre,-21.3393,55.4781,76.68,83,100,10.36,RE,1686778312
514,talara,-4.5772,-81.2719,81.36,61,0,16.11,PE,1686778313
515,jianguang,28.1938,115.7836,71.8,89,99,3.65,CN,1686778313
516,bichura,50.5881,107.6022,44.42,80,56,6.85,RU,1686778313
517,petropavlovsk-kamchatsky,53.0452,158.6483,57.79,67,0,2.24,RU,1686778313
518,hasaki,35.7333,140.8333,71.22,93,100,12.71,JP,1686778313
519,douglas,41.3,-96.167,88.25,29,0,1.99,US,1686778313
520,puerto deseado,-47.7503,-65.8938,44.22,71,85,6.11,AR,1686778313
521,kunhegyes,47.3667,20.6333,60.78,84,16,3.49,HU,1686778314
522,ta`u,-14.2336,-169.5144,80.49,82,99,16.17,AS,1686778314
523,floro,61.5996,5.0328,68.07,88,0,9.22,NO,1686778314
524,yakeshi,49.2833,120.7333,54.68,79,100,17.45,CN,1686778314
525,sihanoukville,10.6093,103.5296,78.75,94,20,2.3,KH,1686778272
526,egersund,58.4513,5.9997,65.08,72,78,3.6,NO,1686778314
527,saldanha,-33.0117,17.9442,57.25,94,100,7.49,ZA,1686778314
528,general conesa,-40.1,-64.4333,56.62,18,37,10.98,AR,1686778314
529,klaksvik,62.2266,-6.589,54.52,92,99,7.83,FO,1686778315
530,benalla,-36.55,145.9833,48.31,87,100,5.21,AU,1686778315
531,havre,49.5833,0.3333,62.35,75,44,7.4,FR,1686778315
532,kourou,5.1552,-52.6478,80.65,88,78,7.02,GF,1686778315
533,pyapon,16.2833,95.6833,79.48,86,99,4.92,MM,1686778315
534,siwa oasis,29.2041,25.5195,84.49,31,0,6.42,EG,1686778315
535,hilo,19.7297,-155.09,82.27,70,75,5.75,US,1686778099
536,hoemul-li,41.4339,129.67,63.16,78,1,0.63,KP,1686778316
537,huangmei,30.1924,116.025,73.49,73,100,1.68,CN,1686778316
538,iquitos,-3.7481,-73.2472,71.64,88,100,8.05,PE,1686778316
539,batticaloa,7.7102,81.6924,83.5,75,100,4.0,LK,1686778316
540,cibitoke,-2.8833,29.25,62.46,87,75,3.91,BI,1686778316
541,kristiansund,63.1115,7.732,59.05,71,0,11.5,NO,1686778316
542,cascais,38.6979,-9.4215,67.93,84,20,21.99,PT,1686778317
543,dalbandin,28.8947,64.4101,84.15,55,0,18.63,PK,1686778317
544,'alaqahdari dishu,30.4374,63.313,87.82,12,1,4.27,AF,1686778317
545,piriapolis,-34.8682,-55.2744,51.91,74,20,4.61,UY,1686778317
546,portland,45.5234,-122.6762,71.15,47,75,4.61,US,1686778317
547,port augusta,-32.5,137.7667,48.58,72,88,10.07,AU,1686778317
548,ayorou,14.7308,0.9174,96.4,32,12,6.85,NE,1686778317
549,wenchang,30.904,118.4887,70.45,74,84,3.71,CN,1686778318
550,pelabuhanratu,-6.9875,106.5514,76.41,90,100,2.15,ID,1686778318
551,bonthe,7.5264,-12.505,79.39,80,67,8.08,SL,1686778318
552,holualoa,19.6228,-155.9522,78.64,83,40,11.5,US,1686778318
553,westerland,54.9079,8.3033,58.95,72,1,3.44,DE,1686778318
554,san martin,-33.081,-68.4681,54.14,30,98,5.28,AR,1686778318
555,puerto colombia,10.9878,-74.9547,89.69,78,100,12.75,CO,1686778319
556,phalaborwa,-23.943,31.1411,67.28,28,0,7.72,ZA,1686778319
557,madang,-5.2246,145.7966,77.32,89,92,5.41,PG,1686778319
558,hami,42.8,93.45,79.52,19,45,14.03,CN,1686778319
559,independencia,-5.3964,-40.3086,77.95,50,0,5.39,BR,1686778319
560,tinogasta,-28.0632,-67.5649,55.51,25,0,4.41,AR,1686778319
561,vila velha,-20.3297,-40.2925,75.15,87,0,5.75,BR,1686778320
562,altamira,-3.2033,-52.2064,86.09,70,40,2.3,BR,1686778320
563,dolores,-36.3132,-57.6792,43.68,69,23,7.05,AR,1686778201
564,arkhangel'sk,64.5401,40.5433,48.13,68,2,2.77,RU,1686778320
565,cobija,-11.0267,-68.7692,53.78,94,100,6.91,BO,1686778320
566,hinton,53.4001,-117.5857,50.07,82,100,9.78,CA,1686778320
567,ghanzi,-21.5667,21.7833,55.27,21,0,6.98,BW,1686778320
